[
  {
    "id": "01KX3GXV99H1C3NAWSY7AJZHQT",
    "name": "Teboil",
    "addr": "Россия, Москва, Троицк, Калужское шоссе, 54",
    "lat": 55.455703,
    "lon": 37.293626,
    "status": "available",
    "statusByFuelType": {
      "92": "available",
      "95": "maybe_available"
    },
    "confidence": 0.631888700817565,
    "yandexOrgId": "109307207714",
    "lastTransactionAt": "2026-07-15T17:20:09.999Z"
  },
  {
    "id": "01KX3GXVK1FSGYC3ESF8621RAY",
    "name": "Gsoil",
    "addr": "Россия, Москва, Новомосковский административный округ, район Щербинка, посёлок Ерино, Высокая улица, 100",
    "lat": 55.450078,
    "lon": 37.527992,
    "status": "not_available",
    "statusByFuelType": {
      "92": "not_available",
      "95": "not_available"
    },
    "yandexOrgId": "116173137430",
    "lastTransactionAt": "2026-07-15T09:59:50.805Z"
  },
  {
    "id": "01KX3GXSDWHD35N9B7CEBH4AE3",
    "name": "Радуга",
    "addr": "Россия, Московская область, Подольск, проспект Ленина, 5А",
    "lat": 55.448186,
    "lon": 37.552454,
    "status": "no_data",
    "statusByFuelType": {
      "92": "no_data",
      "95": "no_data"
    },
    "yandexOrgId": "37307181501",
    "lastTransactionAt": null
  },
  {
    "id": "01KX3GXTGS6EV4HNKB1C13HAHG",
    "name": "Лукойл",
    "addr": "Россия, Московская область, городской округ Подольск, Симферопольское шоссе, 38-й километр, 2",
    "lat": 55.474482,
    "lon": 37.617476,
    "status": "available",
    "statusByFuelType": {
      "92": "available",
      "95": "available"
    },
    "confidence": 0.7742283868505208,
    "yandexOrgId": "69894802144",
    "lastTransactionAt": "2026-07-15T17:26:59.068Z"
  },
  {
    "id": "01KX3GXTAX812QFZSYAJC34XZ5",
    "name": "Газпромнефть",
    "addr": "Россия, Московская область, Домодедово, территория М-2 Крым-Павловское, 6-й км, 1",
    "lat": 55.455909,
    "lon": 37.681423,
    "status": "maybe_available",
    "statusByFuelType": {
      "92": "maybe_available",
      "95": "maybe_available"
    },
    "confidence": 0.5788626623121441,
    "yandexOrgId": "65501810613",
    "lastTransactionAt": "2026-07-15T15:19:34.326Z"
  },
  {
    "id": "01KX3GXSSXKXWBD5M4263T0DKM",
    "name": "Роснефть",
    "addr": "Россия, Московская область, городской округ Домодедово, село Ям, владение Арт-Лоджистик, с2",
    "lat": 55.471014,
    "lon": 37.752917,
    "status": "available",
    "statusByFuelType": {
      "92": "available",
      "95": "available"
    },
    "confidence": 0.7868146810060889,
    "yandexOrgId": "9365825057",
    "lastTransactionAt": "2026-07-15T17:05:22.161Z"
  },
  {
    "id": "01KX3GXTF5C9N11G06QTY0W1Y8",
    "name": "Мострансавто",
    "addr": "Россия, Московская область, Домодедово, микрорайон Центральный",
    "lat": 55.442566,
    "lon": 37.779459,
    "status": "no_data",
    "statusByFuelType": {
      "92": "no_data",
      "95": "no_data"
    },
    "yandexOrgId": "69254266395",
    "lastTransactionAt": null
  },
  {
    "id": "01KX3GXV3D9MZM076Y6SBE7MB2",
    "name": "Татнефть",
    "addr": "Россия, Московская область, городской округ Домодедово, А-105, 39-й километр, вл1",
    "lat": 55.453784,
    "lon": 37.857948,
    "status": "available",
    "statusByFuelType": {
      "92": "available",
      "95": "available"
    },
    "confidence": 0.778910463604333,
    "yandexOrgId": "1679934786",
    "lastTransactionAt": "2026-07-15T17:23:37.123Z"
  },
  {
    "id": "01KX3GXTT7T20HM1CK71PCCHQJ",
    "name": "ОРТК",
    "addr": "Россия, Москва, Троицк, микрорайон В, 63",
    "lat": 55.492844,
    "lon": 37.296476,
    "status": "maybe_available",
    "statusByFuelType": {
      "92": "maybe_available",
      "95": "maybe_available"
    },
    "confidence": 0.5814930700045395,
    "yandexOrgId": "105305045838",
    "lastTransactionAt": "2026-07-15T16:01:51.648Z"
  },
  {
    "id": "01KX3GXTC4H0CYEZGQXQJSRV4J",
    "name": "Газпромнефть",
    "addr": "Россия, Москва, район Троицк, квартал № 90, 1",
    "lat": 55.504235,
    "lon": 37.339207,
    "status": "maybe_available",
    "statusByFuelType": {
      "92": "maybe_available",
      "95": "maybe_available"
    },
    "confidence": 0.6053133803269186,
    "yandexOrgId": "76555667789",
    "lastTransactionAt": "2026-07-15T16:56:28.967Z"
  },
  {
    "id": "01KX3GXTEB39AGMAH6YG01H5H1",
    "name": "Газпромнефть",
    "addr": "Россия, Москва, Новомосковский административный округ, район Щербинка, квартал № 91, 5",
    "lat": 55.484418,
    "lon": 37.517812,
    "status": "maybe_available",
    "statusByFuelType": {
      "92": "maybe_available",
      "95": "maybe_available"
    },
    "confidence": 0.6116440034031041,
    "yandexOrgId": "150304165347",
    "lastTransactionAt": "2026-07-15T17:09:33.204Z"
  },
  {
    "id": "01KX3GXS1JHT4PPF1MDWMG9NVX",
    "name": "Радуга",
    "addr": "Россия, Московская область, Подольск, проспект Юных Ленинцев, 59А",
    "lat": 55.480526,
    "lon": 37.564662,
    "status": "no_data",
    "statusByFuelType": {
      "92": "no_data",
      "95": "no_data"
    },
    "yandexOrgId": "104511840901",
    "lastTransactionAt": null
  },
  {
    "id": "01KX3GXRVDB2X64H039AWY0B8A",
    "name": "Нефтьмагистраль",
    "addr": "Россия, Московская область, городской округ Подольск, М-2 Крым, 31-й километр, 2, стр. 1",
    "lat": 55.492319,
    "lon": 37.612606,
    "status": "no_data",
    "statusByFuelType": {
      "92": "no_data",
      "95": "no_data"
    },
    "yandexOrgId": "1335468207",
    "lastTransactionAt": null
  },
  {
    "id": "01KX3GXTQFFYDCYVCMF6JZGF8A",
    "name": "Экспресс-сервис",
    "addr": "Россия, Московская область, городской округ Подольск, деревня Федюково, Полевая улица, 17",
    "lat": 55.510139,
    "lon": 37.688161,
    "status": "not_available",
    "statusByFuelType": {
      "92": "not_available",
      "95": "not_available"
    },
    "yandexOrgId": "235137823902",
    "lastTransactionAt": "2026-07-15T09:29:12.460Z"
  },
  {
    "id": "01KX3GXSY4TRGB9NYW3ND6BPCF",
    "name": "Роснефть",
    "addr": "Московская область, городской округ Домодедово, село Ям",
    "lat": 55.482122,
    "lon": 37.740129,
    "status": "available",
    "statusByFuelType": {
      "92": "available",
      "95": "maybe_available"
    },
    "confidence": 0.6152342504141509,
    "yandexOrgId": "17777599270",
    "lastTransactionAt": "2026-07-15T16:43:34.323Z"
  },
  {
    "id": "01KX3GXVZMYD7BW6GJ7T1KDVK8",
    "name": "Роснефть",
    "addr": "Россия, Московская область, городской округ Домодедово, село Ям, Брестская улица, 32, корп. 1",
    "lat": 55.484687,
    "lon": 37.756429,
    "status": "maybe_available",
    "statusByFuelType": {
      "92": "maybe_available",
      "95": "maybe_available"
    },
    "confidence": 0.599110014153065,
    "yandexOrgId": "120553090473",
    "lastTransactionAt": "2026-07-15T15:52:30.627Z"
  },
  {
    "id": "01KX3GXTSWBTBRMHF4BPFH9J07",
    "name": "Лукойл",
    "addr": "Россия, Московская область, городской округ Домодедово, А-105, 35-й километр",
    "lat": 55.496385,
    "lon": 37.841562,
    "status": "available",
    "statusByFuelType": {
      "92": "available",
      "95": "available"
    },
    "confidence": 0.7512436527705053,
    "yandexOrgId": "1739819770",
    "lastTransactionAt": "2026-07-15T16:37:27.251Z"
  },
  {
    "id": "01KX3GXRZF4AR3NP3WQV6RY2WX",
    "name": "Газпромнефть",
    "addr": "Россия, Московская область, Ленинский городской округ, посёлок Володарского, улица Елохова Роща, 1",
    "lat": 55.504774,
    "lon": 37.954016,
    "status": "maybe_available",
    "statusByFuelType": {
      "92": "maybe_available",
      "95": "maybe_available"
    },
    "confidence": 0.6326966502732413,
    "yandexOrgId": "91030582838",
    "lastTransactionAt": "2026-07-15T16:59:30.514Z"
  },
  {
    "id": "01KX3GXW3WVEJV0K14E3Q7WTF7",
    "name": "АЗС",
    "addr": "Россия, Московская область, Раменский район, село Константиново",
    "lat": 55.485577,
    "lon": 37.974167,
    "status": "maybe_available",
    "statusByFuelType": {
      "92": "maybe_available",
      "95": "maybe_available"
    },
    "confidence": 0.3647385467040687,
    "yandexOrgId": "1698965533",
    "lastTransactionAt": "2026-07-15T16:41:52.507Z"
  },
  {
    "id": "01KX3GXW30J9VYNV2X8BC7GHVK",
    "name": "АЗС",
    "addr": "Россия, Москва, поселение Первомайское, квартал № 263",
    "lat": 55.514505,
    "lon": 37.224534,
    "status": "no_data",
    "statusByFuelType": {
      "92": "no_data",
      "95": "no_data"
    },
    "yandexOrgId": "179034357929",
    "lastTransactionAt": "2026-07-09T16:25:19.865Z"
  },
  {
    "id": "01KX3GXSCSHH5N20JENPNRFTT5",
    "name": "Эверон",
    "addr": "Россия, Москва, район Троицк, квартал № 61, 5",
    "lat": 55.523906,
    "lon": 37.386038,
    "status": "no_data",
    "statusByFuelType": {
      "92": "no_data",
      "95": "no_data"
    },
    "yandexOrgId": "189956275612",
    "lastTransactionAt": null
  },
  {
    "id": "01KX3GXTKTCD4VQJNVAJDA8EJ7",
    "name": "Эверон",
    "addr": "Россия, Москва, Чечёрский проезд, вл9",
    "lat": 55.532864,
    "lon": 37.53515,
    "status": "no_data",
    "statusByFuelType": {
      "92": "no_data",
      "95": "no_data"
    },
    "yandexOrgId": "132775019968",
    "lastTransactionAt": null
  },
  {
    "id": "01KX3GXVGAJE6GSND3ZKX6P9CY",
    "name": "Эверон",
    "addr": "Россия, Москва, Варшавское шоссе, вл201",
    "lat": 55.537399,
    "lon": 37.583447,
    "status": "no_data",
    "statusByFuelType": {
      "92": "no_data",
      "95": "no_data"
    },
    "yandexOrgId": "148016925913",
    "lastTransactionAt": null
  },
  {
    "id": "01KX3GXSXAZ3R2EJCF4A2S219N",
    "name": "Роснефть",
    "addr": "Россия, Московская область, Ленинский городской округ, Симферопольское шоссе, 25-й километр, 5",
    "lat": 55.539102,
    "lon": 37.610169,
    "status": "not_available",
    "statusByFuelType": {
      "92": "not_available",
      "95": "not_available"
    },
    "yandexOrgId": "1457003659",
    "lastTransactionAt": "2026-07-14T14:04:15.882Z"
  },
  {
    "id": "01KX3GXTCQN1TM4JX47J2XFDTP",
    "name": "Oilbot",
    "addr": "Россия, Московская область, Ленинский городской округ, Видное, Донбасская улица",
    "lat": 55.538261,
    "lon": 37.696839,
    "status": "no_data",
    "statusByFuelType": {
      "92": "no_data",
      "95": "no_data"
    },
    "yandexOrgId": "106001504742",
    "lastTransactionAt": null
  },
  {
    "id": "01KX3GXTAA28QZTJDXJXPN3MK4",
    "name": "Эка Групп",
    "addr": "Россия, Московская область, Ленинский городской округ, городское поселение Горки Ленинские",
    "lat": 55.514932,
    "lon": 37.751456,
    "status": "no_data",
    "statusByFuelType": {
      "92": "no_data",
      "95": "no_data"
    },
    "yandexOrgId": "135941654503",
    "lastTransactionAt": null
  },
  {
    "id": "01KX3GXSV05JK1QVT991ZTBJ4A",
    "name": "Нефтьмагистраль",
    "addr": "Россия, Московская область, Ленинский городской округ, Каширское шоссе, 31-й километр, 30",
    "lat": 55.522441,
    "lon": 37.76517,
    "status": "maybe_available",
    "statusByFuelType": {
      "92": "maybe_available",
      "95": "maybe_available"
    },
    "confidence": 0.5589441001644648,
    "yandexOrgId": "125329614719",
    "lastTransactionAt": "2026-07-15T14:15:19.212Z"
  },
  {
    "id": "01KX3GXV6EG1Q23ZPD35GK2Y3W",
    "name": "Заправка",
    "addr": "Россия, Московская область, Ленинский городской округ, деревня Коробово, 56/4",
    "lat": 55.531772,
    "lon": 37.811805,
    "status": "maybe_available",
    "statusByFuelType": {
      "92": "maybe_available",
      "95": "maybe_available"
    },
    "confidence": 0.36128196096489834,
    "yandexOrgId": "62683691691",
    "lastTransactionAt": "2026-07-15T16:31:15.935Z"
  },
  {
    "id": "01KX3GXVP4EB24D5HGM7RCGEY8",
    "name": "Трасса",
    "addr": "Россия, Московская область, Раменский городской округ, деревня Редькино, Крылатая улица, 1",
    "lat": 55.523795,
    "lon": 37.964745,
    "status": "no_data",
    "statusByFuelType": {
      "92": "no_data",
      "95": "no_data"
    },
    "yandexOrgId": "1328534188",
    "lastTransactionAt": null
  },
  {
    "id": "01KX3GXTEXSE6JE92QZRKH44JW",
    "name": "Азимут",
    "addr": "Россия, Московская область, 46Н-09229",
    "lat": 55.540494,
    "lon": 38.038334,
    "status": "no_data",
    "statusByFuelType": {
      "92": "no_data",
      "95": "no_data"
    },
    "yandexOrgId": "116136129870",
    "lastTransactionAt": "2026-07-15T10:14:19.421Z"
  },
  {
    "id": "01KX3GXTQGD866RJ1AKQNAGF4S",
    "name": "Ниагара МАЗС",
    "addr": "Россия, Москва, Новомосковский административный округ, Филимонковский район, Киевское шоссе, 37-й километр, 2",
    "lat": 55.564308,
    "lon": 37.175233,
    "status": "no_data",
    "statusByFuelType": {
      "92": "no_data",
      "95": "no_data"
    },
    "yandexOrgId": "93396230765",
    "lastTransactionAt": null
  },
  {
    "id": "01KX3GXV2S1YQMSKHR02QX4B58",
    "name": "Нефть",
    "addr": "Москва, Новомосковский административный округ, район Внуково, посёлок Кирпичного Завода, Киевское шоссе, 34-й километр",
    "lat": 55.578873,
    "lon": 37.23742,
    "status": "no_data",
    "statusByFuelType": {
      "92": "no_data",
      "95": "no_data"
    },
    "yandexOrgId": "62189227609",
    "lastTransactionAt": null
  },
  {
    "id": "01KX3GXTMFFX504QDD4ANPW0SJ",
    "name": "Эверон",
    "addr": "Россия, Москва, Новомосковский административный округ, посёлок Коммунарка, улица Александры Монаховой",
    "lat": 55.576776,
    "lon": 37.471692,
    "status": "not_available",
    "statusByFuelType": {
      "92": "not_available",
      "95": "not_available"
    },
    "yandexOrgId": "1799561110",
    "lastTransactionAt": "2026-07-13T08:15:04.548Z"
  },
  {
    "id": "01KX3GXSY6BSRMK3J1PXDH57FP",
    "name": "Лукойл",
    "addr": "Россия, Москва, Бартеневская улица, вл6с1",
    "lat": 55.551955,
    "lon": 37.533283,
    "status": "available",
    "statusByFuelType": {
      "92": "available",
      "95": "available"
    },
    "confidence": 0.7542139617974704,
    "yandexOrgId": "87618756959",
    "lastTransactionAt": "2026-07-15T17:22:29.440Z"
  },
  {
    "id": "01KX3GXTEV1NCY2DE4QJC4WQK6",
    "name": "LPG",
    "addr": "Москва, МКАД, 33-й километр, 10",
    "lat": 55.578437,
    "lon": 37.587183,
    "status": "maybe_available",
    "statusByFuelType": {
      "92": "maybe_available",
      "95": "maybe_available"
    },
    "confidence": 0.39650953081073387,
    "yandexOrgId": "93537999704",
    "lastTransactionAt": "2026-07-15T13:54:49.142Z"
  },
  {
    "id": "01KX3GXTBYAJK1GSE43Y52M2DP",
    "name": "Avis",
    "addr": "Россия, Москва, МКАД, 32-й километр, вл7",
    "lat": 55.575139,
    "lon": 37.60507,
    "status": "maybe_available",
    "statusByFuelType": {
      "92": "maybe_available",
      "95": "maybe_available"
    },
    "confidence": 0.6325999367765344,
    "yandexOrgId": "1003518223",
    "lastTransactionAt": "2026-07-15T17:12:42.775Z"
  },
  {
    "id": "01KX3GXSQ99HCHWTW0EBN7QZT0",
    "name": "АЗС",
    "addr": "Московская область, Ленинский городской округ, Видное",
    "lat": 55.565519,
    "lon": 37.688115,
    "status": "no_data",
    "statusByFuelType": {
      "92": "no_data",
      "95": "no_data"
    },
    "yandexOrgId": "214888687670",
    "lastTransactionAt": null
  },
  {
    "id": "01KX3GXSGSZH1E5M7QXHKN2SQH",
    "name": "Роснефть",
    "addr": "Россия, Московская область, Ленинский городской округ, сельское поселение Совхоз имени Ленина",
    "lat": 55.5856,
    "lon": 37.741119,
    "status": "available",
    "statusByFuelType": {
      "92": "available",
      "95": "maybe_available"
    },
    "confidence": 0.6931874567125431,
    "yandexOrgId": "1100418054",
    "lastTransactionAt": "2026-07-15T17:26:02.870Z"
  },
  {
    "id": "01KX3GXSX75RATK52PY42D3EV6",
    "name": "Роснефть",
    "addr": "Россия, Московская область, Ленинский городской округ, посёлок Совхоза имени Ленина, Каширское шоссе, 23-й километр, вл28",
    "lat": 55.575454,
    "lon": 37.758419,
    "status": "available",
    "statusByFuelType": {
      "92": "available",
      "95": "maybe_available"
    },
    "confidence": 0.6951672776572355,
    "yandexOrgId": "99316539862",
    "lastTransactionAt": "2026-07-15T17:20:05.074Z"
  },
  {
    "id": "01KX3GXSGQR58HS9C3WWNGN3N7",
    "name": "Нефтьмагистраль",
    "addr": "Россия, Московская область, Ленинский городской округ, посёлок городского типа Молоково, Володарское шоссе",
    "lat": 55.561369,
    "lon": 37.852574,
    "status": "maybe_available",
    "statusByFuelType": {
      "92": "maybe_available",
      "95": "not_available"
    },
    "confidence": 0.5203691677191675,
    "yandexOrgId": "184422516028",
    "lastTransactionAt": "2026-07-15T16:04:33.880Z"
  },
  {
    "id": "01KX3GXWDZ44MPZG3TY48CW6WT",
    "name": "Лыткаринская Топливная Компания",
    "addr": "Московская область, Лыткарино, Парковая улица, 5",
    "lat": 55.585354,
    "lon": 37.916646,
    "status": "maybe_available",
    "statusByFuelType": {
      "92": "maybe_available",
      "95": "maybe_available"
    },
    "confidence": 0.6377716040101734,
    "yandexOrgId": "157751754638",
    "lastTransactionAt": "2026-07-15T16:26:47.198Z"
  },
  {
    "id": "01KX3GXSAFDBGZCMEM70ARKE88",
    "name": "БензОМ",
    "addr": "Россия, Московская область, городской округ Люберцы, ДНТ Сосновый Бор, Тураевское шоссе",
    "lat": 55.585726,
    "lon": 37.992234,
    "status": "no_data",
    "statusByFuelType": {
      "92": "no_data",
      "95": "no_data"
    },
    "yandexOrgId": "17615299927",
    "lastTransactionAt": null
  },
  {
    "id": "01KX3GXSTFMZNXQ5Y2CXGJA7TM",
    "name": "Стоянка Лукойл на Новарязанском шоссе",
    "addr": "Московская область, Раменский муниципальный округ, территориальное управление Чулковское",
    "lat": 55.562724,
    "lon": 38.051637,
    "status": "no_data",
    "statusByFuelType": {
      "92": "no_data",
      "95": "no_data"
    },
    "yandexOrgId": "140685358317",
    "lastTransactionAt": null
  },
  {
    "id": "01KX3GXW2YKZGV581CNAAJ401K",
    "name": "Лукойл",
    "addr": "Москва, Новомосковский административный округ, посёлок Внуково, Внуковское шоссе, вл11А",
    "lat": 55.61385,
    "lon": 37.264881,
    "status": "maybe_available",
    "statusByFuelType": {
      "92": "maybe_available",
      "95": "maybe_available"
    },
    "confidence": 0.6395746495711804,
    "yandexOrgId": "1088450465",
    "lastTransactionAt": "2026-07-15T16:52:26.813Z"
  },
  {
    "id": "01KX3GXV8ANXVCBXBANSY11D4Z",
    "name": "Нефтьмагистраль",
    "addr": "Россия, Москва, Новомосковский административный округ, район Внуково, квартал № 93, 3соор1",
    "lat": 55.618378,
    "lon": 37.276843,
    "status": "not_available",
    "statusByFuelType": {
      "92": "not_available",
      "95": "not_available"
    },
    "yandexOrgId": "1695322393",
    "lastTransactionAt": "2026-07-15T16:34:30.523Z"
  },
  {
    "id": "01KX3GXSBJZBE2WZ4J9131JQEH",
    "name": "Лукойл",
    "addr": "Москва, поселение Московский",
    "lat": 55.603828,
    "lon": 37.336936,
    "status": "available",
    "statusByFuelType": {
      "92": "available",
      "95": "available"
    },
    "confidence": 0.799137590586986,
    "yandexOrgId": "1024505797",
    "lastTransactionAt": "2026-07-15T17:26:25.205Z"
  },
  {
    "id": "01KX3GXW36KDV663ETW8APVT86",
    "name": "Роснефть",
    "addr": "Россия, Москва, Новомосковский административный округ, Киевское шоссе, 24-й километр, 2соор1",
    "lat": 55.618895,
    "lon": 37.389809,
    "status": "available",
    "statusByFuelType": {
      "92": "available",
      "95": "available"
    },
    "confidence": 0.7695152502588433,
    "yandexOrgId": "1188683245",
    "lastTransactionAt": "2026-07-15T17:22:38.121Z"
  },
  {
    "id": "01KX3GXVKYEGARVC2DCA1HEKS9",
    "name": "БензОМ",
    "addr": "Москва, Новомосковский административный округ, район Коммунарка, деревня Мамыри, 1Д",
    "lat": 55.602714,
    "lon": 37.469564,
    "status": "no_data",
    "statusByFuelType": {
      "92": "no_data",
      "95": "no_data"
    },
    "yandexOrgId": "198515081756",
    "lastTransactionAt": null
  },
  {
    "id": "01KX3GXVNE4K4F97PP8BF2E5FX",
    "name": "Лукойл",
    "addr": "Москва, Профсоюзная улица, 131Г",
    "lat": 55.613297,
    "lon": 37.497286,
    "status": "maybe_available",
    "statusByFuelType": {
      "92": "maybe_available",
      "95": "maybe_available"
    },
    "confidence": 0.3819740941507214,
    "yandexOrgId": "160283251585",
    "lastTransactionAt": "2026-07-15T13:49:51.935Z"
  },
  {
    "id": "01KX3GXWD5BEP5RN0M66T1MV2C",
    "name": "Роснефть",
    "addr": "Россия, Москва, улица Айвазовского, 2А, стр. 1",
    "lat": 55.619921,
    "lon": 37.54283,
    "status": "available",
    "statusByFuelType": {
      "92": "available",
      "95": "maybe_available"
    },
    "confidence": 0.6501840978315948,
    "yandexOrgId": "1112818580",
    "lastTransactionAt": "2026-07-15T17:14:04.718Z"
  },
  {
    "id": "01KX3GXRWHR234JXKP42M0THZK",
    "name": "Площадка осмотра самоходной техники. Территориальный отдел № 4",
    "addr": "Москва, Южный административный округ, район Чертаново Центральное",
    "lat": 55.610566,
    "lon": 37.624893,
    "status": "no_data",
    "statusByFuelType": {
      "92": "no_data",
      "95": "no_data"
    },
    "yandexOrgId": "136835801972",
    "lastTransactionAt": null
  },
  {
    "id": "01KX3GXW0BH3HEEC5KGMMY6N6M",
    "name": "Tamic",
    "addr": "Россия, Москва, Липецкая улица, 3, корп. 1",
    "lat": 55.608038,
    "lon": 37.667258,
    "status": "not_available",
    "statusByFuelType": {
      "92": "not_available",
      "95": "not_available"
    },
    "yandexOrgId": "117399962653",
    "lastTransactionAt": "2026-07-14T18:38:10.233Z"
  },
  {
    "id": "01KX3GXTVXPP0RQNJVZDNFJA99",
    "name": "АЗС самообслуживания Oilbot",
    "addr": "Россия, Московская область, Ленинский городской округ, посёлок Развилка",
    "lat": 55.589494,
    "lon": 37.733643,
    "status": "no_data",
    "statusByFuelType": {
      "92": "no_data",
      "95": "no_data"
    },
    "yandexOrgId": "82742959264",
    "lastTransactionAt": null
  },
  {
    "id": "01KX3GXSJX3DBN22M6VCEMSEZF",
    "name": "Лукойл",
    "addr": "Россия, Москва, МКАД, 21-й километр, вл14",
    "lat": 55.604012,
    "lon": 37.756398,
    "status": "maybe_available",
    "statusByFuelType": {
      "92": "maybe_available",
      "95": "maybe_available"
    },
    "confidence": 0.6444304042448135,
    "yandexOrgId": "18798257394",
    "lastTransactionAt": "2026-07-15T17:17:12.975Z"
  },
  {
    "id": "01KX3GXT2GDZWSFE1HEEE07ZHP",
    "name": "Лукойл",
    "addr": "Московская область, Лыткарино, Колхозная улица, с2Б",
    "lat": 55.590307,
    "lon": 37.89045,
    "status": "no_data",
    "statusByFuelType": {
      "92": "no_data",
      "95": "no_data"
    },
    "yandexOrgId": "1111134610",
    "lastTransactionAt": null
  },
  {
    "id": "01KX3GXTFYTDDC2T4NG0VEK81V",
    "name": "Лукойл",
    "addr": "Московская область, городской округ Люберцы, посёлок Чкалово, Первомайская улица, 216/1",
    "lat": 55.621958,
    "lon": 37.924949,
    "status": "no_data",
    "statusByFuelType": {
      "92": "no_data",
      "95": "no_data"
    },
    "yandexOrgId": "1520430706",
    "lastTransactionAt": "2026-07-14T06:01:50.304Z"
  },
  {
    "id": "01KX3GXS9AJC3SFPKETFTTGFDS",
    "name": "ФидСток",
    "addr": "Россия, Московская область, Раменский городской округ, деревня Островцы",
    "lat": 55.588977,
    "lon": 37.99983,
    "status": "no_data",
    "statusByFuelType": {
      "92": "no_data",
      "95": "no_data"
    },
    "yandexOrgId": "6780988172",
    "lastTransactionAt": null
  },
  {
    "id": "01KX3GXTTJ2T1MNP9564S47DCW",
    "name": "Tamic",
    "addr": "Россия, Московская область, Раменский муниципальный округ, деревня Верея",
    "lat": 55.622215,
    "lon": 38.03523,
    "status": "not_available",
    "statusByFuelType": {
      "92": "not_available",
      "95": "not_available"
    },
    "yandexOrgId": "158899950527",
    "lastTransactionAt": "2026-07-15T16:54:31.336Z"
  },
  {
    "id": "01KX3GXS1KGE61WJD0FJBZK125",
    "name": "Нефтьмагистраль",
    "addr": "Россия, Московская область, Одинцовский городской округ, М-1 Беларусь, 32-й километр, с1",
    "lat": 55.625712,
    "lon": 37.194489,
    "status": "maybe_available",
    "statusByFuelType": {
      "92": "maybe_available",
      "95": "maybe_available"
    },
    "confidence": 0.5875083610757006,
    "yandexOrgId": "1125940316",
    "lastTransactionAt": "2026-07-15T17:13:55.695Z"
  },
  {
    "id": "01KX3GXRV9FYVJP6JZ8EMQ4HQY",
    "name": "Татнефть",
    "addr": "Россия, Московская область, Одинцовский городской округ, территориальное управление Лесной Городок",
    "lat": 55.647546,
    "lon": 37.25171,
    "status": "available",
    "statusByFuelType": {
      "92": "available",
      "95": "available"
    },
    "confidence": 0.7650361683764311,
    "yandexOrgId": "97898739101",
    "lastTransactionAt": "2026-07-15T17:27:15.866Z"
  },
  {
    "id": "01KX3GXTY1Q6AY62QZ081HJEHG",
    "name": "Лукойл",
    "addr": "Россия, Московская область, Одинцово, улица Маковского, 19А",
    "lat": 55.656082,
    "lon": 37.286796,
    "status": "available",
    "statusByFuelType": {
      "92": "available",
      "95": "available"
    },
    "confidence": 0.7913688081000023,
    "yandexOrgId": "50178042123",
    "lastTransactionAt": "2026-07-15T17:20:56.847Z"
  },
  {
    "id": "01KX3GXVRZ3F62GNN5NW74ZMXR",
    "name": "Трасса",
    "addr": "Россия, Москва, Новомосковский административный округ, район Внуково, Боровское шоссе, 28-й километр, вл2с1",
    "lat": 55.631988,
    "lon": 37.323195,
    "status": "no_data",
    "statusByFuelType": {
      "92": "no_data",
      "95": "no_data"
    },
    "yandexOrgId": "1007827978",
    "lastTransactionAt": null
  },
  {
    "id": "01KX3GXSPB0ZCVDGP0K6EE7YF9",
    "name": "Депо Солнцево",
    "addr": "Россия, Москва, Западный административный округ, район Солнцево",
    "lat": 55.640554,
    "lon": 37.393008,
    "status": "no_data",
    "statusByFuelType": {
      "92": "no_data",
      "95": "no_data"
    },
    "yandexOrgId": "243420487828",
    "lastTransactionAt": null
  },
  {
    "id": "01KX3GXRY0DHWQNJ097RQ66N37",
    "name": "Astra",
    "addr": "Россия, Москва, Новомосковский административный округ, район Коммунарка, деревня Дудкино, 19",
    "lat": 55.630228,
    "lon": 37.449264,
    "status": "no_data",
    "statusByFuelType": {
      "92": "no_data",
      "95": "no_data"
    },
    "yandexOrgId": "81576388234",
    "lastTransactionAt": null
  },
  {
    "id": "01KX3GXVNPBKK3SMW2N7WDA5NN",
    "name": "Лукойл",
    "addr": "Москва, улица Академика Опарина, 3А",
    "lat": 55.642903,
    "lon": 37.499814,
    "status": "maybe_available",
    "statusByFuelType": {
      "92": "maybe_available",
      "95": "maybe_available"
    },
    "confidence": 0.5678762231778196,
    "yandexOrgId": "1048835282",
    "lastTransactionAt": "2026-07-15T16:37:12.991Z"
  },
  {
    "id": "01KX3GXVBTTE50XRMRT4VD6XJ2",
    "name": "Teboil",
    "addr": "Россия, Москва, Азовская улица, вл32Ас1",
    "lat": 55.643495,
    "lon": 37.592464,
    "status": "no_data",
    "statusByFuelType": {
      "92": "no_data",
      "95": "no_data"
    },
    "yandexOrgId": "69837037766",
    "lastTransactionAt": "2026-07-15T06:56:17.674Z"
  },
  {
    "id": "01KX3GXWEKGYTN5KJ446Z8A8N2",
    "name": "Лукойл",
    "addr": "Россия, Москва, Кантемировская улица, 60А",
    "lat": 55.638709,
    "lon": 37.643195,
    "status": "maybe_available",
    "statusByFuelType": {
      "92": "maybe_available",
      "95": "maybe_available"
    },
    "confidence": 0.6585508618463825,
    "yandexOrgId": "1009130159",
    "lastTransactionAt": "2026-07-15T16:42:01.588Z"
  },
  {
    "id": "01KX3GXS0Y2RTQPBAQ8BZQ1Q03",
    "name": "Лукойл",
    "addr": "Москва, Каспийская улица, вл28А",
    "lat": 55.622954,
    "lon": 37.67343,
    "status": "not_available",
    "statusByFuelType": {
      "92": "not_available",
      "95": "not_available"
    },
    "yandexOrgId": "105361210775",
    "lastTransactionAt": "2026-07-15T11:31:41.441Z"
  },
  {
    "id": "01KX3GXRV5JW3HXB633Y0BXSR6",
    "name": "Газпромнефть",
    "addr": "Россия, Москва, Каширское шоссе, 57А",
    "lat": 55.63429,
    "lon": 37.701419,
    "status": "available",
    "statusByFuelType": {
      "92": "available",
      "95": "maybe_available"
    },
    "confidence": 0.6788844544952278,
    "yandexOrgId": "1075698352",
    "lastTransactionAt": "2026-07-15T17:24:56.375Z"
  },
  {
    "id": "01KX3GXTZ0N4FB16B61TRW3CYN",
    "name": "Лукойл",
    "addr": "Россия, Москва, улица Верхние Поля, 24, стр. 3",
    "lat": 55.65779,
    "lon": 37.7893,
    "status": "no_data",
    "statusByFuelType": {
      "92": "no_data",
      "95": "no_data"
    },
    "yandexOrgId": "1334704791",
    "lastTransactionAt": null
  },
  {
    "id": "01KX3GXT7AAAH61MBHE2N9D853",
    "name": "АГЗС Дзержинский",
    "addr": "Московская область, городской округ Люберцы, Дзержинский, Северная производственно-складская зона",
    "lat": 55.641032,
    "lon": 37.824568,
    "status": "no_data",
    "statusByFuelType": {
      "92": "no_data",
      "95": "no_data"
    },
    "yandexOrgId": "124956116691",
    "lastTransactionAt": null
  },
  {
    "id": "01KX3GXVTKVY0NJ7Y81J7MXN2Z",
    "name": "Газпромнефть",
    "addr": "Россия, Московская область, Дзержинский, Дзержинская улица, 46",
    "lat": 55.624343,
    "lon": 37.866258,
    "status": "maybe_available",
    "statusByFuelType": {
      "92": "maybe_available",
      "95": "not_available"
    },
    "confidence": 0.5203476703363469,
    "yandexOrgId": "30145272945",
    "lastTransactionAt": "2026-07-15T15:27:49.049Z"
  },
  {
    "id": "01KX3GXRWP1BDWFZBT787HXH7X",
    "name": "Jet Petroleum",
    "addr": "Россия, Московская область, городской округ Люберцы, посёлок городского типа Томилино, Рязанское шоссе, 23-й километр",
    "lat": 55.656906,
    "lon": 37.919407,
    "status": "not_available",
    "statusByFuelType": {
      "92": "not_available",
      "95": "not_available"
    },
    "yandexOrgId": "114389393655",
    "lastTransactionAt": "2026-07-15T05:02:46.790Z"
  },
  {
    "id": "01KX3GXSFATJ5PYD07BHZG4H63",
    "name": "Газпромнефть",
    "addr": "Московская область, Быковское шоссе, 55А",
    "lat": 55.631735,
    "lon": 37.977183,
    "status": "available",
    "statusByFuelType": {
      "92": "available",
      "95": "maybe_available"
    },
    "confidence": 0.6534293880773501,
    "yandexOrgId": "21598098164",
    "lastTransactionAt": "2026-07-15T17:27:49.631Z"
  },
  {
    "id": "01KX3GXS8N9X353YA28Z6M4NPQ",
    "name": "Татнефть",
    "addr": "Россия, Московская область, городской округ Люберцы, рабочий посёлок Малаховка, Егорьевское шоссе, 7, корп. М",
    "lat": 55.658582,
    "lon": 38.036197,
    "status": "no_data",
    "statusByFuelType": {
      "92": "no_data",
      "95": "no_data"
    },
    "yandexOrgId": "1031200298",
    "lastTransactionAt": null
  },
  {
    "id": "01KX3GXW2J304RFW3B3E1DNV1D",
    "name": "ОРТК",
    "addr": "Россия, Московская область, Одинцовский городской округ, посёлок ВНИИССОК, Кленовая улица, 3А",
    "lat": 55.659439,
    "lon": 37.20093,
    "status": "maybe_available",
    "statusByFuelType": {
      "92": "maybe_available",
      "95": "maybe_available"
    },
    "confidence": 0.5556449114989088,
    "yandexOrgId": "78975047919",
    "lastTransactionAt": "2026-07-15T16:51:57.271Z"
  },
  {
    "id": "01KX3GXSKCZZ9HBJD5TSK94DDY",
    "name": "ОРТК",
    "addr": "Россия, Московская область, Одинцово, Железнодорожная улица, 9",
    "lat": 55.663488,
    "lon": 37.255143,
    "status": "maybe_available",
    "statusByFuelType": {
      "92": "maybe_available",
      "95": "maybe_available"
    },
    "confidence": 0.6249747817147543,
    "yandexOrgId": "100000761801",
    "lastTransactionAt": "2026-07-15T16:20:42.490Z"
  },
  {
    "id": "01KX3GXRWH6DR6EEBSAYW9T3Y8",
    "name": "Дюка",
    "addr": "Московская область, Одинцово, улица Маковского, 1",
    "lat": 55.669145,
    "lon": 37.277716,
    "status": "no_data",
    "statusByFuelType": {
      "92": "no_data",
      "95": "no_data"
    },
    "yandexOrgId": "50012620624",
    "lastTransactionAt": "2026-07-15T12:54:05.716Z"
  },
  {
    "id": "01KX3GXSKXP6ECMJG7B3BG30KC",
    "name": "ОРТК",
    "addr": "Россия, Московская область, Одинцовский городской округ",
    "lat": 55.691203,
    "lon": 37.328422,
    "status": "maybe_available",
    "statusByFuelType": {
      "92": "maybe_available",
      "95": "maybe_available"
    },
    "confidence": 0.5876619827996262,
    "yandexOrgId": "124520703512",
    "lastTransactionAt": "2026-07-15T16:36:20.374Z"
  },
  {
    "id": "01KX3GXSB9FG6EVGGJMT77GBQD",
    "name": "Лукойл",
    "addr": "Россия, Москва, Боровское шоссе, вл2с1",
    "lat": 55.659951,
    "lon": 37.406697,
    "status": "available",
    "statusByFuelType": {
      "92": "available",
      "95": "available"
    },
    "confidence": 0.7737486621008861,
    "yandexOrgId": "1390199045",
    "lastTransactionAt": "2026-07-15T17:28:43.897Z"
  },
  {
    "id": "01KX3GXV6MF13RF6XP8T2X7JYE",
    "name": "Газпромнефть",
    "addr": "Россия, Москва, улица Мичуринский Проспект, Олимпийская Деревня, 21А",
    "lat": 55.672601,
    "lon": 37.457997,
    "status": "no_data",
    "statusByFuelType": {
      "92": "no_data",
      "95": "no_data"
    },
    "yandexOrgId": "1065168618",
    "lastTransactionAt": null
  },
  {
    "id": "01KX3GXSTYC8AQPYXS0D2DTJRV",
    "name": "Лукойл",
    "addr": "Москва, проспект Вернадского, вл76",
    "lat": 55.669691,
    "lon": 37.491598,
    "status": "no_data",
    "statusByFuelType": {
      "92": "no_data",
      "95": "no_data"
    },
    "yandexOrgId": "174875501943",
    "lastTransactionAt": null
  },
  {
    "id": "01KX3GXSG9B4AAASJRSAS22XGF",
    "name": "Лукойл",
    "addr": "Россия, Москва, Новочерёмушкинская улица, 63А, стр. 1",
    "lat": 55.667243,
    "lon": 37.563442,
    "status": "maybe_available",
    "statusByFuelType": {
      "92": "maybe_available",
      "95": "maybe_available"
    },
    "confidence": 0.6708592507918222,
    "yandexOrgId": "1774381650",
    "lastTransactionAt": "2026-07-15T17:25:21.532Z"
  },
  {
    "id": "01KX3GXTF6V3HWWYQ0W7RPH8DD",
    "name": "Teboil",
    "addr": "Россия, Москва, Нахимовский проспект, 21, стр. 1",
    "lat": 55.665649,
    "lon": 37.597328,
    "status": "available",
    "statusByFuelType": {
      "92": "available",
      "95": "available"
    },
    "confidence": 0.7925596720436828,
    "yandexOrgId": "173091369380",
    "lastTransactionAt": "2026-07-15T17:24:25.042Z"
  },
  {
    "id": "01KX3GXSC71QF3RTG7M09G7GWB",
    "name": "Газпромнефть",
    "addr": "Россия, Москва, улица Речников, 9",
    "lat": 55.684109,
    "lon": 37.693957,
    "status": "available",
    "statusByFuelType": {
      "92": "available",
      "95": "available"
    },
    "confidence": 0.7603843090757025,
    "yandexOrgId": "1110829084",
    "lastTransactionAt": "2026-07-15T16:59:59.377Z"
  },
  {
    "id": "01KX3GXTPTCMSFWS28XC7GJ9WM",
    "name": "Роснефть",
    "addr": "Россия, Москва, улица Полбина, вл29",
    "lat": 55.674585,
    "lon": 37.726412,
    "status": "available",
    "statusByFuelType": {
      "92": "available",
      "95": "maybe_available"
    },
    "confidence": 0.6691304557602785,
    "yandexOrgId": "1122937374",
    "lastTransactionAt": "2026-07-15T17:23:20.748Z"
  },
  {
    "id": "01KX3GXSR0YREC0PRDP8RDJGPS",
    "name": "Teboil",
    "addr": "Россия, Москва, улица Перерва, вл65с1",
    "lat": 55.667372,
    "lon": 37.766501,
    "status": "maybe_available",
    "statusByFuelType": {
      "92": "maybe_available",
      "95": "maybe_available"
    },
    "confidence": 0.6099260045385891,
    "yandexOrgId": "55770124737",
    "lastTransactionAt": "2026-07-15T17:15:51.468Z"
  },
  {
    "id": "01KX3GXW1E5JXDMJQ6W8ES2NBY",
    "name": "Нефтьмагистраль",
    "addr": "Россия, Москва, МКАД, 12-й километр, вл2",
    "lat": 55.674934,
    "lon": 37.836772,
    "status": "available",
    "statusByFuelType": {
      "92": "available",
      "95": "available"
    },
    "confidence": 0.7827827156790506,
    "yandexOrgId": "204461215978",
    "lastTransactionAt": "2026-07-15T17:22:09.532Z"
  },
  {
    "id": "01KX3GXTPS2DM1AGX9AX9105ZM",
    "name": "Bora Petrol",
    "addr": "Россия, Московская область, Люберцы, Инициативная улица, вл3",
    "lat": 55.67872,
    "lon": 37.906581,
    "status": "no_data",
    "statusByFuelType": {
      "92": "no_data",
      "95": "no_data"
    },
    "yandexOrgId": "148906456550",
    "lastTransactionAt": "2026-07-12T08:07:46.902Z"
  },
  {
    "id": "01KX3GXT7NFDPNQXGQ4PJPDHHD",
    "name": "Неотэк",
    "addr": "Россия, Москва, Проектируемый проезд № 4296",
    "lat": 55.675566,
    "lon": 37.943032,
    "status": "no_data",
    "statusByFuelType": {
      "92": "no_data",
      "95": "no_data"
    },
    "yandexOrgId": "89446734583",
    "lastTransactionAt": "2026-07-09T14:49:27.385Z"
  },
  {
    "id": "01KX3GXRWFNHCNAMKZ71HEAW71",
    "name": "Трасса",
    "addr": "Россия, Московская область, городской округ Люберцы, дачный посёлок Красково, улица Карла Маркса, 1А",
    "lat": 55.660821,
    "lon": 37.973404,
    "status": "no_data",
    "statusByFuelType": {
      "92": "no_data",
      "95": "no_data"
    },
    "yandexOrgId": "1200380023",
    "lastTransactionAt": null
  },
  {
    "id": "01KX3GXTGQWTV4EX2KRQSA7TGN",
    "name": "ОРТК",
    "addr": "Россия, Московская область, Одинцовский городской округ, посёлок Горки-2, 21",
    "lat": 55.724258,
    "lon": 37.175373,
    "status": "maybe_available",
    "statusByFuelType": {
      "92": "maybe_available",
      "95": "maybe_available"
    },
    "confidence": 0.6460100079826937,
    "yandexOrgId": "53606117468",
    "lastTransactionAt": "2026-07-15T16:43:14.872Z"
  },
  {
    "id": "01KX3GXVP8TMF6K40GXZB4KF18",
    "name": "ОРТК",
    "addr": "Россия, Московская область, Одинцово, территория 4 км Красногорского шоссе, 1",
    "lat": 55.697113,
    "lon": 37.22844,
    "status": "maybe_available",
    "statusByFuelType": {
      "92": "maybe_available",
      "95": "maybe_available"
    },
    "confidence": 0.5998744169414124,
    "yandexOrgId": "1744781263",
    "lastTransactionAt": "2026-07-15T16:26:22.742Z"
  },
  {
    "id": "01KX3GXSZXRW1SHYYQDJDTNYJZ",
    "name": "Роснефть",
    "addr": "Россия, Московская область, Одинцовский городской округ, посёлок городского типа Новоивановское, Западная улица, с183",
    "lat": 55.698142,
    "lon": 37.34179,
    "status": "maybe_available",
    "statusByFuelType": {
      "92": "maybe_available",
      "95": "maybe_available"
    },
    "confidence": 0.6076930535281088,
    "yandexOrgId": "13662528624",
    "lastTransactionAt": "2026-07-15T16:58:36.063Z"
  },
  {
    "id": "01KX3GXRSTP0979DY312028YKQ",
    "name": "Роснефть",
    "addr": "Россия, Москва, Можайское шоссе, 43",
    "lat": 55.716704,
    "lon": 37.409785,
    "status": "maybe_available",
    "statusByFuelType": {
      "92": "maybe_available",
      "95": "maybe_available"
    },
    "confidence": 0.602518902445094,
    "yandexOrgId": "175066193930",
    "lastTransactionAt": "2026-07-15T16:24:54.833Z"
  },
  {
    "id": "01KX3GXSC8F5SJPRND0S2QGGJ9",
    "name": "Нефтьмагистраль",
    "addr": "Россия, Москва, Нежинская улица, 5А",
    "lat": 55.713724,
    "lon": 37.475685,
    "status": "no_data",
    "statusByFuelType": {
      "92": "no_data",
      "95": "no_data"
    },
    "yandexOrgId": "1092943885",
    "lastTransactionAt": null
  },
  {
    "id": "01KX3GXS8Q3RYYV7W1ZJTX7786",
    "name": "Газпромнефть",
    "addr": "Москва, Минская улица, 1Н",
    "lat": 55.726284,
    "lon": 37.494621,
    "status": "available",
    "statusByFuelType": {
      "92": "available",
      "95": "maybe_available"
    },
    "confidence": 0.6975724222739442,
    "yandexOrgId": "1297116700",
    "lastTransactionAt": "2026-07-15T17:19:34.466Z"
  },
  {
    "id": "01KX3GXTVRZW1BCZE1NFJD1P9Q",
    "name": "ФСВ",
    "addr": "Россия, Москва, 1-й Сетуньский проезд, 2соор1",
    "lat": 55.731731,
    "lon": 37.542567,
    "status": "no_data",
    "statusByFuelType": {
      "92": "no_data",
      "95": "no_data"
    },
    "yandexOrgId": "1685768528",
    "lastTransactionAt": null
  },
  {
    "id": "01KX3GXTXEY6N7FBNBHE7BP8EZ",
    "name": "Лукойл",
    "addr": "Россия, Москва, Малая Тульская улица, 54",
    "lat": 55.702033,
    "lon": 37.61568,
    "status": "available",
    "statusByFuelType": {
      "92": "available",
      "95": "available"
    },
    "confidence": 0.798623663672875,
    "yandexOrgId": "1139004012",
    "lastTransactionAt": "2026-07-15T17:20:51.611Z"
  },
  {
    "id": "01KX3GXRZ5REQGHT4Y7AGK77VC",
    "name": "Газойл",
    "addr": "Москва, 3-й Угрешский проезд, 13",
    "lat": 55.712989,
    "lon": 37.700545,
    "status": "maybe_available",
    "statusByFuelType": {
      "92": "maybe_available",
      "95": "maybe_available"
    },
    "confidence": 0.6118490997272797,
    "yandexOrgId": "112026284051",
    "lastTransactionAt": "2026-07-15T16:51:36.975Z"
  },
  {
    "id": "01KX3GXS2J4GZ6YYBZAK7117DC",
    "name": "Лукойл",
    "addr": "Москва, Шоссейный проезд, вл14",
    "lat": 55.704849,
    "lon": 37.717634,
    "status": "maybe_available",
    "statusByFuelType": {
      "92": "maybe_available",
      "95": "maybe_available"
    },
    "confidence": 0.5808613563042676,
    "yandexOrgId": "1297949596",
    "lastTransactionAt": "2026-07-15T16:56:57.371Z"
  },
  {
    "id": "01KX3GXRV4R5HZPP722FTDKFB3",
    "name": "Газпромнефть",
    "addr": "Москва, Сормовский проезд, 9",
    "lat": 55.707718,
    "lon": 37.800098,
    "status": "available",
    "statusByFuelType": {
      "92": "available",
      "95": "maybe_available"
    },
    "confidence": 0.6720462886504445,
    "yandexOrgId": "1044137659",
    "lastTransactionAt": "2026-07-15T17:14:02.805Z"
  },
  {
    "id": "01KX3GXS8RFQ2VVT2CGMWQ5NVV",
    "name": "Vk",
    "addr": "Москва, Лермонтовский проспект, 5, корп. 2",
    "lat": 55.706068,
    "lon": 37.845162,
    "status": "no_data",
    "statusByFuelType": {
      "92": "no_data",
      "95": "no_data"
    },
    "yandexOrgId": "165262099127",
    "lastTransactionAt": null
  },
  {
    "id": "01KX3GXTMASW77C7P6ZM8A3039",
    "name": "Газмагистраль",
    "addr": "Московская область, Люберцы",
    "lat": 55.706583,
    "lon": 37.906142,
    "status": "no_data",
    "statusByFuelType": {
      "92": "no_data",
      "95": "no_data"
    },
    "yandexOrgId": "68388961851",
    "lastTransactionAt": null
  },
  {
    "id": "01KX3GXSCWJK323T0YXXBVZS8E",
    "name": "Азс-робот",
    "addr": "Россия, Московская область, Люберцы, микрорайон Зенино ЖК Самолёт, Некрасовский проезд, 37",
    "lat": 55.708758,
    "lon": 37.948226,
    "status": "maybe_available",
    "statusByFuelType": {
      "92": "maybe_available",
      "95": "maybe_available"
    },
    "confidence": 0.36900483556388397,
    "yandexOrgId": "184972895914",
    "lastTransactionAt": "2026-07-15T15:25:36.069Z"
  },
  {
    "id": "01KX3GXRVEHMCWNMFH0E2VVSWH",
    "name": "Дизель",
    "addr": "Россия, Московская область, городской округ Люберцы",
    "lat": 55.697414,
    "lon": 37.999989,
    "status": "no_data",
    "statusByFuelType": {
      "92": "no_data",
      "95": "no_data"
    },
    "yandexOrgId": "173670798896",
    "lastTransactionAt": null
  },
  {
    "id": "01KX3GXTT92J21TJDPKSPREHVK",
    "name": "Опти",
    "addr": "Россия, Московская область, городской округ Балашиха, деревня Соболиха, Новослободская улица, 48",
    "lat": 55.71439,
    "lon": 38.046518,
    "status": "available",
    "statusByFuelType": {
      "92": "available",
      "95": "available"
    },
    "confidence": 0.76547511380806,
    "yandexOrgId": "73676667991",
    "lastTransactionAt": "2026-07-15T17:23:15.067Z"
  },
  {
    "id": "01KX3GXVF0X98AZM5557Y3SHPT",
    "name": "Татнефть",
    "addr": "Россия, Московская область, Одинцовский городской округ, посёлок Усово-Тупик, 21",
    "lat": 55.733897,
    "lon": 37.223852,
    "status": "available",
    "statusByFuelType": {
      "92": "available",
      "95": "available"
    },
    "confidence": 0.7531855642360104,
    "yandexOrgId": "215071488451",
    "lastTransactionAt": "2026-07-15T17:24:55.879Z"
  },
  {
    "id": "01KX3GXS4RBCYFE1ZYXP9Y64M0",
    "name": "Лукойл",
    "addr": "Московская область, Одинцовский городской округ, деревня Раздоры, Рублёво-Успенское шоссе, 1-й километр, 1/1",
    "lat": 55.765012,
    "lon": 37.364789,
    "status": "available",
    "statusByFuelType": {
      "92": "available",
      "95": "available"
    },
    "confidence": 0.771478359462661,
    "yandexOrgId": "1198718997",
    "lastTransactionAt": "2026-07-15T17:18:52.146Z"
  },
  {
    "id": "01KX3GXTDEXY0EMMVSY64R6JJR",
    "name": "Татнефть",
    "addr": "Москва, улица Крылатские Холмы, вл40",
    "lat": 55.764301,
    "lon": 37.407109,
    "status": "available",
    "statusByFuelType": {
      "92": "available",
      "95": "available"
    },
    "confidence": 0.7686966826151018,
    "yandexOrgId": "1184586731",
    "lastTransactionAt": "2026-07-15T17:28:29.552Z"
  },
  {
    "id": "01KX3GXV6EDXCYRGDQSD3KADC1",
    "name": "Татнефть",
    "addr": "Москва, улица Нижние Мнёвники, 45",
    "lat": 55.76528,
    "lon": 37.468509,
    "status": "available",
    "statusByFuelType": {
      "92": "available",
      "95": "available"
    },
    "confidence": 0.764283355482975,
    "yandexOrgId": "1056257363",
    "lastTransactionAt": "2026-07-15T17:15:11.034Z"
  },
  {
    "id": "01KX3GXWD4SEC012ANSE9N47ZQ",
    "name": "Газпромнефть",
    "addr": "Россия, Москва, улица Барклая, 26",
    "lat": 55.751692,
    "lon": 37.494456,
    "status": "available",
    "statusByFuelType": {
      "92": "available",
      "95": "maybe_available"
    },
    "confidence": 0.6058433898579357,
    "yandexOrgId": "1087897931",
    "lastTransactionAt": "2026-07-15T17:25:50.586Z"
  },
  {
    "id": "01KX3GXT2645727T9W8TWXC5B4",
    "name": "Татнефть",
    "addr": "Россия, Москва, Звенигородское шоссе, 28",
    "lat": 55.766321,
    "lon": 37.539447,
    "status": "maybe_available",
    "statusByFuelType": {
      "92": "maybe_available",
      "95": "maybe_available"
    },
    "confidence": 0.5939707544207443,
    "yandexOrgId": "1046503843",
    "lastTransactionAt": "2026-07-15T16:33:53.003Z"
  },
  {
    "id": "01KX3GXSK89ST03YVM7PJKSEAM",
    "name": "Роснефть",
    "addr": "Россия, Москва, Котельническая набережная, 1/15соор10",
    "lat": 55.746397,
    "lon": 37.640819,
    "status": "maybe_available",
    "statusByFuelType": {
      "92": "maybe_available",
      "95": "maybe_available"
    },
    "confidence": 0.5489646689318025,
    "yandexOrgId": "148354456029",
    "lastTransactionAt": "2026-07-15T16:46:49.722Z"
  },
  {
    "id": "01KX3GXTNZ1YVWWS2QM3FCT4VJ",
    "name": "Роснефть",
    "addr": "Россия, Москва, Наставнический переулок, 17",
    "lat": 55.748604,
    "lon": 37.666249,
    "status": "maybe_available",
    "statusByFuelType": {
      "92": "maybe_available",
      "95": "maybe_available"
    },
    "confidence": 0.6073724315530608,
    "yandexOrgId": "1054470981",
    "lastTransactionAt": "2026-07-15T16:53:29.405Z"
  },
  {
    "id": "01KX3GXRW1KAS9924NAAG7F64X",
    "name": "GetPetrol",
    "addr": "Россия, Москва, 5-я Кабельная улица, 2А, стр. 1",
    "lat": 55.737971,
    "lon": 37.717914,
    "status": "no_data",
    "statusByFuelType": {
      "92": "no_data",
      "95": "no_data"
    },
    "yandexOrgId": "12606165464",
    "lastTransactionAt": null
  },
  {
    "id": "01KX3GXSEA6TZ858T10XMT1J2G",
    "name": "Лукойл",
    "addr": "Россия, Москва, улица Плеханова, 7А",
    "lat": 55.755701,
    "lon": 37.75901,
    "status": "available",
    "statusByFuelType": {
      "92": "available",
      "95": "available"
    },
    "confidence": 0.759858728324589,
    "yandexOrgId": "1016178693",
    "lastTransactionAt": "2026-07-15T17:17:25.650Z"
  },
  {
    "id": "01KX3GXSSANCH42PXF2KBH0A4B",
    "name": "Лукойл",
    "addr": "Россия, Москва, улица Сталеваров, 12Асоор1",
    "lat": 55.760667,
    "lon": 37.839247,
    "status": "available",
    "statusByFuelType": {
      "92": "available",
      "95": "available"
    },
    "confidence": 0.7818749355673528,
    "yandexOrgId": "215230780077",
    "lastTransactionAt": "2026-07-15T17:28:20.325Z"
  },
  {
    "id": "01KX3GXTND85PMNZNT6ZT47CE3",
    "name": "Роснефть",
    "addr": "Россия, Москва, Суздальская улица, 15А",
    "lat": 55.744871,
    "lon": 37.864231,
    "status": "available",
    "statusByFuelType": {
      "92": "available",
      "95": "available"
    },
    "confidence": 0.7826246429494444,
    "yandexOrgId": "107734534343",
    "lastTransactionAt": "2026-07-15T17:26:10.234Z"
  },
  {
    "id": "01KX3GXSJP8N2J08V13CXX5FC2",
    "name": "Роснефть",
    "addr": "Россия, Московская область, Балашиха, Керамическая улица, 3, стр. 1",
    "lat": 55.740226,
    "lon": 37.968416,
    "status": "available",
    "statusByFuelType": {
      "92": "available",
      "95": "available"
    },
    "confidence": 0.7569964385491815,
    "yandexOrgId": "1214304870",
    "lastTransactionAt": "2026-07-15T17:24:26.811Z"
  },
  {
    "id": "01KX3GXSP1PEBQTNW36PQEQV43",
    "name": "Псп-2002",
    "addr": "Россия, Московская область, Балашиха, микрорайон Саввино, улица Калинина, 2А",
    "lat": 55.738083,
    "lon": 38.023645,
    "status": "not_available",
    "statusByFuelType": {
      "92": "not_available",
      "95": "not_available"
    },
    "yandexOrgId": "29005947296",
    "lastTransactionAt": "2026-07-15T15:32:39.960Z"
  },
  {
    "id": "01KX3GXS8HMKJ19AY181DSVTA2",
    "name": "Татнефть",
    "addr": "Московская область, Балашиха, микрорайон Железнодорожный, Советская улица, 95А",
    "lat": 55.750839,
    "lon": 38.054109,
    "status": "no_data",
    "statusByFuelType": {
      "92": "no_data",
      "95": "no_data"
    },
    "yandexOrgId": "211143699155",
    "lastTransactionAt": "2026-07-15T12:24:41.043Z"
  },
  {
    "id": "01KX3GXT1966XG6GSXEB8PVSD1",
    "name": "Лукойл",
    "addr": "Россия, Московская область, городской округ Красногорск, Новорижское шоссе, 29-й километр, с1",
    "lat": 55.778313,
    "lon": 37.1861,
    "status": "available",
    "statusByFuelType": {
      "92": "available",
      "95": "available"
    },
    "confidence": 0.7841081802852505,
    "yandexOrgId": "231337602625",
    "lastTransactionAt": "2026-07-15T17:18:17.604Z"
  },
  {
    "id": "01KX3GXVPPVW54M5FXK8X4Y8K9",
    "name": "Лукойл",
    "addr": "Московская область, городской округ Красногорск, М-9 Балтия, 25-й километр, вл2Б",
    "lat": 55.788075,
    "lon": 37.253297,
    "status": "available",
    "statusByFuelType": {
      "92": "available",
      "95": "available"
    },
    "confidence": 0.7952318097376516,
    "yandexOrgId": "156613380756",
    "lastTransactionAt": "2026-07-15T17:25:26.948Z"
  },
  {
    "id": "01KX3GXRZRTC9N1V765CY3HDN5",
    "name": "General Fueller",
    "addr": "Россия, Московская область, городской округ Красногорск, деревня Гольёво, Центральная улица, 65",
    "lat": 55.799224,
    "lon": 37.303764,
    "status": "maybe_available",
    "statusByFuelType": {
      "92": "maybe_available",
      "95": "maybe_available"
    },
    "confidence": 0.6021283994037666,
    "yandexOrgId": "1755895326",
    "lastTransactionAt": "2026-07-15T16:55:11.786Z"
  },
  {
    "id": "01KX3GXS0Z2DSXAXNMN67GA662",
    "name": "Роснефть",
    "addr": "Россия, Москва, МКАД, 62-й километр, вл9",
    "lat": 55.791663,
    "lon": 37.365526,
    "status": "available",
    "statusByFuelType": {
      "92": "available",
      "95": "maybe_available"
    },
    "confidence": 0.6855882971459878,
    "yandexOrgId": "75413763122",
    "lastTransactionAt": "2026-07-15T17:00:53.292Z"
  },
  {
    "id": "01KX3GXSBBAV9PBDQ2NF3R51VW",
    "name": "Азс-робот",
    "addr": "Москва, Северо-Западный административный округ, район Строгино",
    "lat": 55.788041,
    "lon": 37.384139,
    "status": "no_data",
    "statusByFuelType": {
      "92": "no_data",
      "95": "no_data"
    },
    "yandexOrgId": "161118984596",
    "lastTransactionAt": null
  },
  {
    "id": "01KX3GXSTJ7BSGDGCDTRYED49X",
    "name": "Plus",
    "addr": "Россия, Москва, улица Берзарина, 26, корп. 1",
    "lat": 55.788849,
    "lon": 37.476708,
    "status": "not_available",
    "statusByFuelType": {
      "92": "not_available",
      "95": "not_available"
    },
    "yandexOrgId": "194976470931",
    "lastTransactionAt": "2026-07-15T10:29:37.721Z"
  },
  {
    "id": "01KX3GXT3ENYV1Z36KNPC1WMKQ",
    "name": "Роснефть",
    "addr": "Россия, Москва, улица Народного Ополчения, 51, корп. 1",
    "lat": 55.79646,
    "lon": 37.496893,
    "status": "maybe_available",
    "statusByFuelType": {
      "92": "maybe_available",
      "95": "maybe_available"
    },
    "confidence": 0.5866662931446381,
    "yandexOrgId": "229306133381",
    "lastTransactionAt": "2026-07-15T16:17:30.380Z"
  },
  {
    "id": "01KX3GXRXS4E7ZBRD2NS968P0H",
    "name": "Лукойл",
    "addr": "Москва, Бумажный проезд, 2, стр. 1",
    "lat": 55.785388,
    "lon": 37.586195,
    "status": "no_data",
    "statusByFuelType": {
      "92": "no_data",
      "95": "no_data"
    },
    "yandexOrgId": "222898505476",
    "lastTransactionAt": null
  },
  {
    "id": "01KX3GXTEFTSKAXYZF9VDKB7ME",
    "name": "Shell",
    "addr": "Россия, Москва, Большая Переяславская улица, 66",
    "lat": 55.791091,
    "lon": 37.641204,
    "status": "no_data",
    "statusByFuelType": {
      "92": "no_data",
      "95": "no_data"
    },
    "yandexOrgId": "6686732517",
    "lastTransactionAt": null
  },
  {
    "id": "01KX3GXS1VBKYTG4N7V2AGVCSW",
    "name": "Татнефть",
    "addr": "Россия, Москва, Электрозаводская улица, 1А, стр. 2",
    "lat": 55.783166,
    "lon": 37.700196,
    "status": "not_available",
    "statusByFuelType": {
      "92": "not_available",
      "95": "not_available"
    },
    "yandexOrgId": "98259565648",
    "lastTransactionAt": "2026-07-14T14:12:06.307Z"
  },
  {
    "id": "01KX3GXTV7ERRXVF62SCPEVKRN",
    "name": "Роснефть",
    "addr": "Россия, Москва, Преображенская улица, вл3",
    "lat": 55.795788,
    "lon": 37.703954,
    "status": "available",
    "statusByFuelType": {
      "92": "available",
      "95": "available"
    },
    "confidence": 0.7766098581111667,
    "yandexOrgId": "3549169046",
    "lastTransactionAt": "2026-07-15T17:18:08.419Z"
  },
  {
    "id": "01KX3GXW63D918P0B25RJZRENP",
    "name": "Лукойл",
    "addr": "Россия, Москва, Измайловское шоссе, 75",
    "lat": 55.789843,
    "lon": 37.765742,
    "status": "maybe_available",
    "statusByFuelType": {
      "92": "maybe_available",
      "95": "maybe_available"
    },
    "confidence": 0.6084197840152402,
    "yandexOrgId": "1004394051",
    "lastTransactionAt": "2026-07-15T17:27:00.424Z"
  },
  {
    "id": "01KX3GXSX6TM3WB1TZVEPHJ5G6",
    "name": "Роснефть",
    "addr": "Россия, Московская область, Балашиха",
    "lat": 55.779277,
    "lon": 37.850737,
    "status": "available",
    "statusByFuelType": {
      "92": "available",
      "95": "maybe_available"
    },
    "confidence": 0.6479275751552501,
    "yandexOrgId": "156188676645",
    "lastTransactionAt": "2026-07-15T17:27:58.945Z"
  },
  {
    "id": "01KX3GXT7BBPFR87TZ5KC0VCVA",
    "name": "Петрабель",
    "addr": "Россия, Московская область, Балашиха, микрорайон Никольско-Архангельский, Вишняковское шоссе, 109В",
    "lat": 55.7797,
    "lon": 37.90839,
    "status": "not_available",
    "statusByFuelType": {
      "92": "not_available",
      "95": "not_available"
    },
    "yandexOrgId": "69184683430",
    "lastTransactionAt": "2026-07-15T12:14:47.245Z"
  },
  {
    "id": "01KX3GXTF8ZJ7DD30E7DM7AM77",
    "name": "Трасса",
    "addr": "Россия, Московская область, Балашиха, Леоновское шоссе, вл6",
    "lat": 55.786519,
    "lon": 37.960608,
    "status": "no_data",
    "statusByFuelType": {
      "92": "no_data",
      "95": "no_data"
    },
    "yandexOrgId": "1191639909",
    "lastTransactionAt": null
  },
  {
    "id": "01KX3GXV68T4R4ZS689YNNXD5F",
    "name": "Нефтьмагистраль",
    "addr": "Россия, Московская область, Балашиха, шоссе Энтузиастов, 82",
    "lat": 55.798469,
    "lon": 37.988636,
    "status": "available",
    "statusByFuelType": {
      "92": "available",
      "95": "maybe_available"
    },
    "confidence": 0.6395071024930623,
    "yandexOrgId": "153176768860",
    "lastTransactionAt": "2026-07-15T16:40:00.373Z"
  },
  {
    "id": "01KX3GXW7QKDCW42VKPWCETKV9",
    "name": "Tamic",
    "addr": "Россия, Московская область, городской округ Красногорск, рабочий посёлок Нахабино, улица Панфилова, 26",
    "lat": 55.832884,
    "lon": 37.176805,
    "status": "not_available",
    "statusByFuelType": {
      "92": "not_available",
      "95": "not_available"
    },
    "yandexOrgId": "133841485632",
    "lastTransactionAt": "2026-07-14T15:44:50.335Z"
  },
  {
    "id": "01KX3GXVSACDFFTGX4GWXBQ3SR",
    "name": "Газпромнефть",
    "addr": "Россия, Московская область, Красногорск, микрорайон Изумрудные Холмы",
    "lat": 55.835454,
    "lon": 37.2668,
    "status": "not_available",
    "statusByFuelType": {
      "92": "not_available",
      "95": "not_available"
    },
    "yandexOrgId": "175458878267",
    "lastTransactionAt": "2026-07-15T14:14:48.290Z"
  },
  {
    "id": "01KX3GXT9FY64FX2A03Z0ZP4R0",
    "name": "АЗС-робот",
    "addr": "Россия, Московская область, Красногорск, Светлая улица, 3А, стр. 4",
    "lat": 55.832872,
    "lon": 37.276608,
    "status": "maybe_available",
    "statusByFuelType": {
      "92": "maybe_available",
      "95": "not_available"
    },
    "confidence": 0.3567389107820234,
    "yandexOrgId": "114787276328",
    "lastTransactionAt": "2026-07-15T16:14:18.080Z"
  },
  {
    "id": "01KX3GXS1JXH871FA9GYV0TE1C",
    "name": "General Fueller",
    "addr": "Россия, Москва, улица Барышиха, 3",
    "lat": 55.840311,
    "lon": 37.369362,
    "status": "not_available",
    "statusByFuelType": {
      "92": "not_available",
      "95": "not_available"
    },
    "yandexOrgId": "154608205529",
    "lastTransactionAt": "2026-07-15T15:31:12.477Z"
  },
  {
    "id": "01KX3GXT13T7RH2M1RJ87YSTVZ",
    "name": "General Fueller",
    "addr": "Россия, Москва, Походный проезд, 1, корп. 1",
    "lat": 55.832802,
    "lon": 37.406049,
    "status": "maybe_available",
    "statusByFuelType": {
      "92": "maybe_available",
      "95": "maybe_available"
    },
    "confidence": 0.5796505707778562,
    "yandexOrgId": "1759904509",
    "lastTransactionAt": "2026-07-15T16:31:55.897Z"
  },
  {
    "id": "01KX3GXSAGD7XZ3PXAJJVJ267Q",
    "name": "Лукойл",
    "addr": "Москва, Волоколамское шоссе, 65, корп. 1",
    "lat": 55.820136,
    "lon": 37.446492,
    "status": "available",
    "statusByFuelType": {
      "92": "available",
      "95": "maybe_available"
    },
    "confidence": 0.6243821182927894,
    "yandexOrgId": "1088902876",
    "lastTransactionAt": "2026-07-15T16:58:01.685Z"
  },
  {
    "id": "01KX3GXRSXNDKE411YQYD1TNXE",
    "name": "Лукойл",
    "addr": "Москва, Волоколамское шоссе, 22",
    "lat": 55.811499,
    "lon": 37.48715,
    "status": "no_data",
    "statusByFuelType": {
      "92": "no_data",
      "95": "no_data"
    },
    "yandexOrgId": "1113831732",
    "lastTransactionAt": null
  },
  {
    "id": "01KX3GXS4QFK49NWPP2A1DFWWZ",
    "name": "Лукойл",
    "addr": "Москва, Дмитровское шоссе, 11Б1",
    "lat": 55.817691,
    "lon": 37.574645,
    "status": "maybe_available",
    "statusByFuelType": {
      "92": "maybe_available",
      "95": "maybe_available"
    },
    "confidence": 0.5916254187411092,
    "yandexOrgId": "121838451494",
    "lastTransactionAt": "2026-07-15T16:41:52.502Z"
  },
  {
    "id": "01KX3GXSHJ77KCFPTGP940M249",
    "name": "Роснефть",
    "addr": "Россия, Москва, проспект Мира, 142",
    "lat": 55.81976,
    "lon": 37.641291,
    "status": "available",
    "statusByFuelType": {
      "92": "available",
      "95": "available"
    },
    "confidence": 0.7804998576072919,
    "yandexOrgId": "1122384436",
    "lastTransactionAt": "2026-07-15T17:27:55.724Z"
  },
  {
    "id": "01KX3GXTAQRW6HVKDQPS1APJ3R",
    "name": "Нефтьмагистраль",
    "addr": "Москва, проспект Мира, 186Д, стр. 1",
    "lat": 55.830342,
    "lon": 37.652068,
    "status": "not_available",
    "statusByFuelType": {
      "92": "not_available",
      "95": "not_available"
    },
    "yandexOrgId": "1330710647",
    "lastTransactionAt": "2026-07-15T17:09:10.616Z"
  },
  {
    "id": "01KX3GXTRWK76R7XS2NX5VH8SJ",
    "name": "Роснефть",
    "addr": "Москва, Пермская улица, 2",
    "lat": 55.821725,
    "lon": 37.734958,
    "status": "available",
    "statusByFuelType": {
      "92": "available",
      "95": "maybe_available"
    },
    "confidence": 0.6,
    "yandexOrgId": "1017695255",
    "lastTransactionAt": "2026-07-15T17:24:01.342Z"
  },
  {
    "id": "01KX3GXS8M918Q4P7QK7K5ZJSQ",
    "name": "Радуга",
    "addr": "Москва, Монтажная улица, 3А, стр. 1",
    "lat": 55.81745,
    "lon": 37.769367,
    "status": "not_available",
    "statusByFuelType": {
      "92": "not_available",
      "95": "not_available"
    },
    "yandexOrgId": "90536661423",
    "lastTransactionAt": "2026-07-14T13:44:50.242Z"
  },
  {
    "id": "01KX3GXV695FVTX7HMH1S7RKCP",
    "name": "Лукойл",
    "addr": "Москва, Щёлковское шоссе, 102А",
    "lat": 55.812402,
    "lon": 37.837039,
    "status": "available",
    "statusByFuelType": {
      "92": "available",
      "95": "available"
    },
    "confidence": 0.7765531482250091,
    "yandexOrgId": "1403876523",
    "lastTransactionAt": "2026-07-15T17:29:49.391Z"
  },
  {
    "id": "01KX3GXS4ZM9F20J2RCCHPY579",
    "name": "Лукойл",
    "addr": "Россия, Московская область, Балашиха, Щёлковское шоссе, 20/21",
    "lat": 55.829092,
    "lon": 37.909929,
    "status": "maybe_available",
    "statusByFuelType": {
      "92": "maybe_available",
      "95": "maybe_available"
    },
    "confidence": 0.6032178889992549,
    "yandexOrgId": "223896697915",
    "lastTransactionAt": "2026-07-15T17:02:33.498Z"
  },
  {
    "id": "01KX3GXRX8V1KP3AZPEBNWN165",
    "name": "Пропан",
    "addr": "Московская область, Балашиха, Рябиновая улица, 3",
    "lat": 55.837711,
    "lon": 37.949487,
    "status": "no_data",
    "statusByFuelType": {
      "92": "no_data",
      "95": "no_data"
    },
    "yandexOrgId": "216786042419",
    "lastTransactionAt": null
  },
  {
    "id": "01KX3GXTM80F9Z7E4V4C9JCPAZ",
    "name": "Лагуна-С",
    "addr": "Россия, Московская область, Балашиха, улица Свердлова, вл60",
    "lat": 55.832633,
    "lon": 37.972438,
    "status": "not_available",
    "statusByFuelType": {
      "92": "not_available",
      "95": "not_available"
    },
    "yandexOrgId": "1738402413",
    "lastTransactionAt": "2026-07-15T01:20:17.674Z"
  },
  {
    "id": "01KX3GXV9Q10ETSY8BZFK3PFAS",
    "name": "Greenlight",
    "addr": "Московская область, Балашиха, Владимирская улица, 145",
    "lat": 55.808705,
    "lon": 38.062975,
    "status": "no_data",
    "statusByFuelType": {
      "92": "no_data",
      "95": "no_data"
    },
    "yandexOrgId": "63613563427",
    "lastTransactionAt": "2026-07-15T12:33:24.605Z"
  },
  {
    "id": "01KX3GXRZAZPX1RDPVP0HJSMH9",
    "name": "ТрансАЗС",
    "addr": "Россия, Московская область, городской округ Красногорск, рабочий посёлок Нахабино, улица 11 Сапёров, 5",
    "lat": 55.84362,
    "lon": 37.173617,
    "status": "no_data",
    "statusByFuelType": {
      "92": "no_data",
      "95": "no_data"
    },
    "yandexOrgId": "1702406255",
    "lastTransactionAt": null
  },
  {
    "id": "01KX3GXSKKF3KS0N967VD71HHD",
    "name": "BenzMarket",
    "addr": "Россия, Московская область, городской округ Красногорск, Пятницкое шоссе, 7-й километр, вл2",
    "lat": 55.870668,
    "lon": 37.335675,
    "status": "no_data",
    "statusByFuelType": {
      "92": "no_data",
      "95": "no_data"
    },
    "yandexOrgId": "110191211771",
    "lastTransactionAt": null
  },
  {
    "id": "01KX3GXRW6ZSXZQBCWY1GFVQRQ",
    "name": "Vk",
    "addr": "Россия, Московская область, городской округ Красногорск, посёлок городского типа Путилково",
    "lat": 55.861776,
    "lon": 37.398817,
    "status": "no_data",
    "statusByFuelType": {
      "92": "no_data",
      "95": "no_data"
    },
    "yandexOrgId": "1797489994",
    "lastTransactionAt": null
  },
  {
    "id": "01KX3GXSPYSNM88KKPBE3KN9AA",
    "name": "Газпром газомоторное топливо",
    "addr": "Москва, Левобережная улица, 8",
    "lat": 55.874934,
    "lon": 37.471262,
    "status": "no_data",
    "statusByFuelType": {
      "92": "no_data",
      "95": "no_data"
    },
    "yandexOrgId": "46858350866",
    "lastTransactionAt": null
  },
  {
    "id": "01KX3GXS3KH0AHTBECHKY9EWFN",
    "name": "Газпромнефть",
    "addr": "Россия, Москва, Фестивальная улица, 6А, стр. 1",
    "lat": 55.858072,
    "lon": 37.487611,
    "status": "available",
    "statusByFuelType": {
      "92": "available",
      "95": "available"
    },
    "confidence": 0.762009250468399,
    "yandexOrgId": "182116102728",
    "lastTransactionAt": "2026-07-15T17:22:38.761Z"
  },
  {
    "id": "01KX3GXS9D29VJHV7NXC6DMN9F",
    "name": "Пропан-бутан",
    "addr": "Россия, Москва, Алтуфьевское шоссе, вл50А",
    "lat": 55.877149,
    "lon": 37.588003,
    "status": "no_data",
    "statusByFuelType": {
      "92": "no_data",
      "95": "no_data"
    },
    "yandexOrgId": "187028182040",
    "lastTransactionAt": null
  },
  {
    "id": "01KX3GXT7Z1546ADF2YHRHYG2Z",
    "name": "Лукойл",
    "addr": "Москва, Сигнальный проезд, 39А",
    "lat": 55.849242,
    "lon": 37.59585,
    "status": "maybe_available",
    "statusByFuelType": {
      "92": "maybe_available",
      "95": "maybe_available"
    },
    "confidence": 0.6220940557714694,
    "yandexOrgId": "239273443953",
    "lastTransactionAt": "2026-07-15T17:09:57.996Z"
  },
  {
    "id": "01KX3GXRZRA1ABAAYDK7D13H4H",
    "name": "Газпромнефть",
    "addr": "Россия, Москва, Ярославское шоссе, 1А",
    "lat": 55.849913,
    "lon": 37.674253,
    "status": "maybe_available",
    "statusByFuelType": {
      "92": "maybe_available",
      "95": "maybe_available"
    },
    "confidence": 0.5901479398586319,
    "yandexOrgId": "1284006313",
    "lastTransactionAt": "2026-07-15T14:51:51.598Z"
  },
  {
    "id": "01KX3GXVMRB9TWJPQTPEW9TN27",
    "name": "Лукойл",
    "addr": "Москва, Ярославское шоссе, 113, корп. 2",
    "lat": 55.869932,
    "lon": 37.709786,
    "status": "not_available",
    "statusByFuelType": {
      "92": "not_available",
      "95": "not_available"
    },
    "yandexOrgId": "63685414110",
    "lastTransactionAt": "2026-07-15T17:08:48.291Z"
  },
  {
    "id": "01KX3GXVH3D4SNQJ6Y9BK4FFV6",
    "name": "Татнефть",
    "addr": "Россия, Московская область, городской округ Балашиха, Щёлковское шоссе, 24-й километр, 210",
    "lat": 55.84501,
    "lon": 37.958037,
    "status": "available",
    "statusByFuelType": {
      "92": "available",
      "95": "maybe_available"
    },
    "confidence": 0.6763657641595583,
    "yandexOrgId": "1038977293",
    "lastTransactionAt": "2026-07-15T17:24:53.888Z"
  },
  {
    "id": "01KX3GXTF9G14R1CQ8C9J9TJQ3",
    "name": "Трасса",
    "addr": "Россия, Московская область, городской округ Химки, деревня Благовещенка, Липовая аллея, 2",
    "lat": 55.908715,
    "lon": 37.230877,
    "status": "no_data",
    "statusByFuelType": {
      "92": "no_data",
      "95": "no_data"
    },
    "yandexOrgId": "1779492038",
    "lastTransactionAt": null
  },
  {
    "id": "01KX3GXTDVY3NJDVKTEVJGV3D7",
    "name": "Лукойл",
    "addr": "Россия, Московская область, городской округ Красногорск, садовое товарищество Марьинка, 1",
    "lat": 55.888692,
    "lon": 37.305062,
    "status": "maybe_available",
    "statusByFuelType": {
      "92": "maybe_available",
      "95": "maybe_available"
    },
    "confidence": 0.4573803126248821,
    "yandexOrgId": "152832512557",
    "lastTransactionAt": "2026-07-15T16:00:15.644Z"
  },
  {
    "id": "01KX3GXWGN6TQ4V55YS9ZXE81X",
    "name": "Азс-робот",
    "addr": "Россия, Московская область, Химки, Коммунальный проезд, 15",
    "lat": 55.912833,
    "lon": 37.418477,
    "status": "not_available",
    "statusByFuelType": {
      "92": "not_available",
      "95": "not_available"
    },
    "yandexOrgId": "62180588471",
    "lastTransactionAt": "2026-07-15T12:12:27.550Z"
  },
  {
    "id": "01KX3GXT8G3KPSP0XCNA5WV1FP",
    "name": "Татнефть",
    "addr": "Россия, Москва, Ленинградское шоссе, 77А, стр. 1",
    "lat": 55.880191,
    "lon": 37.44565,
    "status": "available",
    "statusByFuelType": {
      "92": "available",
      "95": "maybe_available"
    },
    "confidence": 0.6799300223644116,
    "yandexOrgId": "1019572712",
    "lastTransactionAt": "2026-07-15T17:22:31.407Z"
  },
  {
    "id": "01KX3GXSYD35Z2D05F1DFPBTB9",
    "name": "Лукойл",
    "addr": "Россия, Московская область, Химки, МКАД, 78-й километр, 1Д",
    "lat": 55.889464,
    "lon": 37.487981,
    "status": "maybe_available",
    "statusByFuelType": {
      "92": "maybe_available",
      "95": "maybe_available"
    },
    "confidence": 0.597454371080951,
    "yandexOrgId": "198613519256",
    "lastTransactionAt": "2026-07-15T16:36:48.466Z"
  },
  {
    "id": "01KX3GXTEH15JW6QDHQJFMGK0A",
    "name": "Роснефть",
    "addr": "Россия, Москва, Дмитровское шоссе, 116Г",
    "lat": 55.901958,
    "lon": 37.543891,
    "status": "available",
    "statusByFuelType": {
      "92": "available",
      "95": "maybe_available"
    },
    "confidence": 0.6437205916819446,
    "yandexOrgId": "149735548692",
    "lastTransactionAt": "2026-07-15T16:37:06.778Z"
  },
  {
    "id": "01KX3GXS5495G7S5JCP8JC9MTX",
    "name": "Газпромнефть",
    "addr": "Москва, МКАД, 86-й километр, 3",
    "lat": 55.905989,
    "lon": 37.609237,
    "status": "available",
    "statusByFuelType": {
      "92": "available",
      "95": "maybe_available"
    },
    "confidence": 0.6939500414719529,
    "yandexOrgId": "1278982871",
    "lastTransactionAt": "2026-07-15T17:01:42.119Z"
  },
  {
    "id": "01KX3GXV3AJR6DM48NG5TA7R4C",
    "name": "Nps",
    "addr": "Москва, Осташковская улица, 18А",
    "lat": 55.885403,
    "lon": 37.67731,
    "status": "no_data",
    "statusByFuelType": {
      "92": "no_data",
      "95": "no_data"
    },
    "yandexOrgId": "177284233844",
    "lastTransactionAt": null
  },
  {
    "id": "01KX3GXRY3TS8DP2BRSRE635SH",
    "name": "Татнефть",
    "addr": "Россия, Москва, МКАД, 93-й километр, 6",
    "lat": 55.891441,
    "lon": 37.705023,
    "status": "no_data",
    "statusByFuelType": {
      "92": "no_data",
      "95": "no_data"
    },
    "yandexOrgId": "209407975956",
    "lastTransactionAt": null
  },
  {
    "id": "01KX3GXWM5F8VHQ5DXEQDC07BE",
    "name": "Роснефть",
    "addr": "Россия, Московская область, Мытищи, Ярославское шоссе, 100",
    "lat": 55.909447,
    "lon": 37.777903,
    "status": "maybe_available",
    "statusByFuelType": {
      "92": "maybe_available",
      "95": "maybe_available"
    },
    "confidence": 0.5938046705147193,
    "yandexOrgId": "1450772955",
    "lastTransactionAt": "2026-07-15T16:19:17.310Z"
  },
  {
    "id": "01KX3GXSJETFGRX70YYVWT3B8M",
    "name": "UNKOIL",
    "addr": "Россия, Московская область, Королёв, улица Орджоникидзе, 5",
    "lat": 55.905891,
    "lon": 37.850911,
    "status": "not_available",
    "statusByFuelType": {
      "92": "not_available",
      "95": "not_available"
    },
    "yandexOrgId": "124789843463",
    "lastTransactionAt": "2026-07-09T15:02:02.494Z"
  },
  {
    "id": "01KX3GXW2SF350EK59H3VGBHEX",
    "name": "Пентан-К",
    "addr": "Россия, Московская область, Королёв, улица Академика Легостаева, 3",
    "lat": 55.906315,
    "lon": 37.864771,
    "status": "maybe_available",
    "statusByFuelType": {
      "92": "maybe_available",
      "95": "maybe_available"
    },
    "confidence": 0.5673563074303875,
    "yandexOrgId": "1172526693",
    "lastTransactionAt": "2026-07-15T14:57:32.508Z"
  },
  {
    "id": "01KX3GXWAP0Z2H0J9FFN2G56AV",
    "name": "Лукойл",
    "addr": "Россия, Московская область, Щёлково, Московская улица, 127",
    "lat": 55.894274,
    "lon": 37.9845,
    "status": "maybe_available",
    "statusByFuelType": {
      "92": "maybe_available",
      "95": "maybe_available"
    },
    "confidence": 0.5873114845106905,
    "yandexOrgId": "1335504642",
    "lastTransactionAt": "2026-07-15T17:12:16.669Z"
  },
  {
    "id": "01KX3GXVNTFHPNVWDYZXYVPXQ0",
    "name": "BenzMarket",
    "addr": "Россия, Московская область, Щёлково, Радужная улица, 1Б",
    "lat": 55.902507,
    "lon": 38.078683,
    "status": "no_data",
    "statusByFuelType": {
      "92": "no_data",
      "95": "no_data"
    },
    "yandexOrgId": "69874727977",
    "lastTransactionAt": "2026-07-13T08:12:11.705Z"
  },
  {
    "id": "01KX3GXT39BRVXWVRXY2X68AKT",
    "name": "Лукойл",
    "addr": "Россия, Московская область, городской округ Солнечногорск, территориальное управление Андреевка",
    "lat": 55.940827,
    "lon": 37.174584,
    "status": "available",
    "statusByFuelType": {
      "92": "available",
      "95": "maybe_available"
    },
    "confidence": 0.6735708478899689,
    "yandexOrgId": "228835181950",
    "lastTransactionAt": "2026-07-15T17:28:00.475Z"
  },
  {
    "id": "01KX3GXWHY79GTXB1C05G3QS1K",
    "name": "Нефтьмагистраль",
    "addr": "Россия, Московская область, Химки, микрорайон Сходня, Железнодорожная улица, 11",
    "lat": 55.949322,
    "lon": 37.309083,
    "status": "no_data",
    "statusByFuelType": {
      "92": "no_data",
      "95": "no_data"
    },
    "yandexOrgId": "1065614885",
    "lastTransactionAt": null
  },
  {
    "id": "01KX3GXVY0X05VX7QX5B1KNJTR",
    "name": "Teboil",
    "addr": "Россия, Москва, Ленинградское шоссе, 227",
    "lat": 55.939352,
    "lon": 37.365237,
    "status": "available",
    "statusByFuelType": {
      "92": "available",
      "95": "available"
    },
    "confidence": 0.7754373514464236,
    "yandexOrgId": "129665021702",
    "lastTransactionAt": "2026-07-15T17:28:20.986Z"
  },
  {
    "id": "01KX3GXRVMC9YKDXQEZMSNE5MC",
    "name": "АГНС Нефтьмагистраль",
    "addr": "Московская область, Химки",
    "lat": 55.9209,
    "lon": 37.394497,
    "status": "no_data",
    "statusByFuelType": {
      "92": "no_data",
      "95": "no_data"
    },
    "yandexOrgId": "232309551146",
    "lastTransactionAt": null
  },
  {
    "id": "01KX3GXT60CMQFCHZ577W4Z762",
    "name": "Лукойл",
    "addr": "Московская область, городской округ Химки, М-11, 23-й километр",
    "lat": 55.947611,
    "lon": 37.442404,
    "status": "available",
    "statusByFuelType": {
      "92": "available",
      "95": "available"
    },
    "confidence": 0.9074860992348105,
    "yandexOrgId": "87942568533",
    "lastTransactionAt": "2026-07-15T17:23:09.357Z"
  },
  {
    "id": "01KX3GXTA9EM7NSCEPYREE1XJ4",
    "name": "Бензом",
    "addr": "Россия, Московская область, Долгопрудный, Лихачёвский проспект",
    "lat": 55.915736,
    "lon": 37.495418,
    "status": "no_data",
    "statusByFuelType": {
      "92": "no_data",
      "95": "no_data"
    },
    "yandexOrgId": "214182629833",
    "lastTransactionAt": null
  },
  {
    "id": "01KX3GXW0D6CZM08H6MPHX2D16",
    "name": "Лукойл",
    "addr": "Россия, Москва, Дмитровское шоссе, вл124Д",
    "lat": 55.931873,
    "lon": 37.548151,
    "status": "maybe_available",
    "statusByFuelType": {
      "92": "maybe_available",
      "95": "maybe_available"
    },
    "confidence": 0.6648640694198135,
    "yandexOrgId": "225680980337",
    "lastTransactionAt": "2026-07-15T17:16:22.479Z"
  },
  {
    "id": "01KX3GXTC0YA2DZ7NXVZAHA73A",
    "name": "Трасса",
    "addr": "Россия, Московская область, городской округ Мытищи, деревня Бородино, Осташковское шоссе, вл16",
    "lat": 55.916159,
    "lon": 37.66856,
    "status": "no_data",
    "statusByFuelType": {
      "92": "no_data",
      "95": "no_data"
    },
    "yandexOrgId": "1687002791",
    "lastTransactionAt": null
  },
  {
    "id": "01KX3GXS3Y0SFEG91K3J8SDMMD",
    "name": "Роснефть",
    "addr": "Россия, Московская область, Мытищи, Олимпийский проспект, 38А",
    "lat": 55.926133,
    "lon": 37.75506,
    "status": "available",
    "statusByFuelType": {
      "92": "available",
      "95": "maybe_available"
    },
    "confidence": 0.6639780127971624,
    "yandexOrgId": "1083181200",
    "lastTransactionAt": "2026-07-15T17:09:59.218Z"
  },
  {
    "id": "01KX3GXV34MT9Z3FK3BTBPWR9G",
    "name": "АЗС СТС",
    "addr": "Россия, Московская область, Мытищи, Ярославское шоссе, 111",
    "lat": 55.918199,
    "lon": 37.793048,
    "status": "not_available",
    "statusByFuelType": {
      "92": "not_available",
      "95": "not_available"
    },
    "yandexOrgId": "1726890251",
    "lastTransactionAt": "2026-07-14T17:25:17.270Z"
  },
  {
    "id": "01KX3GXTVW9C117ZW0SYBCD78N",
    "name": "Teboil",
    "addr": "Московская область, Королёв, Болшевское шоссе, 39",
    "lat": 55.933785,
    "lon": 37.826566,
    "status": "no_data",
    "statusByFuelType": {
      "92": "no_data",
      "95": "no_data"
    },
    "yandexOrgId": "224285270742",
    "lastTransactionAt": "2026-07-14T03:32:26.042Z"
  },
  {
    "id": "01KX3GXV3WHFHJ1VXC4W359KGX",
    "name": "Unkoil",
    "addr": "Московская область, Королёв, микрорайон Первомайский, Советская улица, 46",
    "lat": 55.939802,
    "lon": 37.866612,
    "status": "maybe_available",
    "statusByFuelType": {
      "92": "maybe_available",
      "95": "maybe_available"
    },
    "confidence": 0.6165278669199508,
    "yandexOrgId": "4693439153",
    "lastTransactionAt": "2026-07-15T17:23:27.349Z"
  },
  {
    "id": "01KX3GXTC5VWXKT4PZ6ZJ1K3W3",
    "name": "Татнефть",
    "addr": "Московская область, городской округ Щёлково, посёлок городского типа Загорянский, улица Калинина, 66",
    "lat": 55.92762,
    "lon": 37.929169,
    "status": "no_data",
    "statusByFuelType": {
      "92": "no_data",
      "95": "no_data"
    },
    "yandexOrgId": "238891115487",
    "lastTransactionAt": null
  },
  {
    "id": "01KX3GXSXG3AZKK6GWSF0J8DNH",
    "name": "Газпромнефть",
    "addr": "Россия, Московская область, Щёлково, улица Фрунзе, 1, стр. 12",
    "lat": 55.927999,
    "lon": 37.982215,
    "status": "no_data",
    "statusByFuelType": {
      "92": "no_data",
      "95": "no_data"
    },
    "yandexOrgId": "45889829897",
    "lastTransactionAt": null
  },
  {
    "id": "01KX3GXTQ6DR75YJW71ZSH79JZ",
    "name": "BenzMarket",
    "addr": "Россия, Московская область, Фрязино",
    "lat": 55.948061,
    "lon": 38.058995,
    "status": "no_data",
    "statusByFuelType": {
      "92": "no_data",
      "95": "no_data"
    },
    "yandexOrgId": "222957411901",
    "lastTransactionAt": null
  },
  {
    "id": "01KX3GXWD4YEQNM6BHEN1JM8TK",
    "name": "Татнефть",
    "addr": "Россия, Москва, Зеленоград, Проектируемый проезд № 687, 1",
    "lat": 55.963032,
    "lon": 37.18212,
    "status": "available",
    "statusByFuelType": {
      "92": "available",
      "95": "available"
    },
    "confidence": 0.7987197256438788,
    "yandexOrgId": "1061322039",
    "lastTransactionAt": "2026-07-15T17:22:22.257Z"
  },
  {
    "id": "01KX3GXVD7RZASQ2P5R6MEETPY",
    "name": "Лукойл",
    "addr": "Москва, Зеленоградский административный округ, район Савёлки",
    "lat": 55.976581,
    "lon": 37.264057,
    "status": "no_data",
    "statusByFuelType": {
      "92": "no_data",
      "95": "no_data"
    },
    "yandexOrgId": "1694406977",
    "lastTransactionAt": null
  },
  {
    "id": "01KX3GXTVDHKXM1QG7MCHBBDD1",
    "name": "Роснефть",
    "addr": "Россия, Московская область, городской округ Химки, Ленинградское шоссе, 33-й километр, с1",
    "lat": 55.97845,
    "lon": 37.300561,
    "status": "available",
    "statusByFuelType": {
      "92": "available",
      "95": "maybe_available"
    },
    "confidence": 0.6719601333037633,
    "yandexOrgId": "92881988289",
    "lastTransactionAt": "2026-07-15T17:22:57.430Z"
  },
  {
    "id": "01KX3GXTFQ2DRJDG3RDPXYJ5FM",
    "name": "Газойл",
    "addr": "Москва, Ленинградское шоссе, 309Б, стр. 1",
    "lat": 55.951522,
    "lon": 37.346578,
    "status": "no_data",
    "statusByFuelType": {
      "92": "no_data",
      "95": "no_data"
    },
    "yandexOrgId": "93606585798",
    "lastTransactionAt": null
  },
  {
    "id": "01KX3GXVHD6J3J6QK8ZR09WNN1",
    "name": "Газпромнефть",
    "addr": "Россия, Московская область, городской округ Химки, Международное шоссе, вл1А",
    "lat": 55.95928,
    "lon": 37.414954,
    "status": "available",
    "statusByFuelType": {
      "92": "available",
      "95": "available"
    },
    "confidence": 0.750326125632669,
    "yandexOrgId": "27012055171",
    "lastTransactionAt": "2026-07-15T17:22:51.242Z"
  },
  {
    "id": "01KX3GXV71NYQ5KFXDRWXVCE4R",
    "name": "Татнефть",
    "addr": "Московская область, Химки, квартал Клязьма, 1Д",
    "lat": 55.971618,
    "lon": 37.448387,
    "status": "not_available",
    "statusByFuelType": {
      "92": "not_available",
      "95": "not_available"
    },
    "yandexOrgId": "105101054971",
    "lastTransactionAt": "2026-07-15T14:08:34.568Z"
  },
  {
    "id": "01KX3GXW4ENVECFM95HMEHQ6MD",
    "name": "Нефтьмагистраль",
    "addr": "Московская область, Долгопрудный, Старое Дмитровское шоссе, 8А",
    "lat": 55.961512,
    "lon": 37.531882,
    "status": "not_available",
    "statusByFuelType": {
      "92": "not_available",
      "95": "not_available"
    },
    "yandexOrgId": "1306494324",
    "lastTransactionAt": "2026-07-15T16:43:39.999Z"
  },
  {
    "id": "01KX3GXW8EGESFXC06JD7XDZGB",
    "name": "Трасса",
    "addr": "Россия, Московская область, городской округ Мытищи, деревня Афанасово, улица Берёзовая Роща, 2",
    "lat": 55.965842,
    "lon": 37.596384,
    "status": "no_data",
    "statusByFuelType": {
      "92": "no_data",
      "95": "no_data"
    },
    "yandexOrgId": "1037455694",
    "lastTransactionAt": null
  },
  {
    "id": "01KX3GXSPPRXXHG4M5907C0KHE",
    "name": "Газпромнефть",
    "addr": "Россия, Московская область, городской округ Мытищи, деревня Беляниново, Осташковское шоссе, 92",
    "lat": 55.951555,
    "lon": 37.652496,
    "status": "maybe_available",
    "statusByFuelType": {
      "92": "maybe_available",
      "95": "maybe_available"
    },
    "confidence": 0.6480267365406552,
    "yandexOrgId": "202143553594",
    "lastTransactionAt": "2026-07-15T17:10:02.680Z"
  },
  {
    "id": "01KX3GXTPY7DG40V1AZSZMM9SS",
    "name": "АЗС-робот",
    "addr": "Московская область, городской округ Мытищи, деревня Пирогово, Совхозная улица, 20Б",
    "lat": 55.970347,
    "lon": 37.742665,
    "status": "no_data",
    "statusByFuelType": {
      "92": "no_data",
      "95": "no_data"
    },
    "yandexOrgId": "33798355664",
    "lastTransactionAt": "2026-07-14T17:27:04.086Z"
  },
  {
    "id": "01KX3GXWDRMBYEGE432SPC5X8Y",
    "name": "Газпромнефть",
    "addr": "Россия, Московская область, Пушкино, микрорайон Звягино, Школьная улица, 5Г, стр. 1",
    "lat": 55.981147,
    "lon": 37.794798,
    "status": "maybe_available",
    "statusByFuelType": {
      "92": "maybe_available",
      "95": "maybe_available"
    },
    "confidence": 0.6257854949987663,
    "yandexOrgId": "89544087326",
    "lastTransactionAt": "2026-07-15T16:48:03.304Z"
  },
  {
    "id": "01KX3GXVMVEZGW9A2ZXZWNJM40",
    "name": "Поддоны",
    "addr": "Московская область, Пушкино",
    "lat": 55.984973,
    "lon": 37.856445,
    "status": "no_data",
    "statusByFuelType": {
      "92": "no_data",
      "95": "no_data"
    },
    "yandexOrgId": "83586371079",
    "lastTransactionAt": null
  },
  {
    "id": "01KX3GXSVT1AS6H42NGDQJP2Q9",
    "name": "Push.Ka",
    "addr": "Московская область, городской округ Пушкинский, Ивантеевка, Центральный проезд, 26",
    "lat": 55.967367,
    "lon": 37.888712,
    "status": "no_data",
    "statusByFuelType": {
      "92": "no_data",
      "95": "no_data"
    },
    "yandexOrgId": "1140987697",
    "lastTransactionAt": "2026-07-15T11:27:05.926Z"
  },
  {
    "id": "01KX3GXTFXSAHTVJACP8E4P3YY",
    "name": "Teboil",
    "addr": "Россия, Московская область, городской округ Пушкинский, Ивантеевка, Железнодорожная улица, 2",
    "lat": 55.971528,
    "lon": 37.924769,
    "status": "available",
    "statusByFuelType": {
      "92": "available",
      "95": "maybe_available"
    },
    "confidence": 0.6875849908995997,
    "yandexOrgId": "8245992640",
    "lastTransactionAt": "2026-07-15T17:28:42.624Z"
  },
  {
    "id": "01KX3GXSRYP3NAQXJGWN68D8DZ",
    "name": "Нефтьмагистраль",
    "addr": "Россия, Москва, Зеленоград, Новокрюковская улица, 5",
    "lat": 55.988107,
    "lon": 37.161121,
    "status": "no_data",
    "statusByFuelType": {
      "92": "no_data",
      "95": "no_data"
    },
    "yandexOrgId": "1383985803",
    "lastTransactionAt": null
  },
  {
    "id": "01KX3GXSG4SWA0160B2CA2MWWG",
    "name": "Роснефть",
    "addr": "Россия, Москва, Зеленоград, к537",
    "lat": 55.99516,
    "lon": 37.254372,
    "status": "available",
    "statusByFuelType": {
      "92": "available",
      "95": "maybe_available"
    },
    "confidence": 0.6542667546057953,
    "yandexOrgId": "78630911565",
    "lastTransactionAt": "2026-07-15T17:05:12.877Z"
  },
  {
    "id": "01KX3GXVAQBR4HJNARC0MJKZEN",
    "name": "Роснефть",
    "addr": "Россия, Московская область, городской округ Химки, посёлок Лунёво, Гаражная улица, 1М",
    "lat": 55.994865,
    "lon": 37.338064,
    "status": "maybe_available",
    "statusByFuelType": {
      "92": "maybe_available",
      "95": "maybe_available"
    },
    "confidence": 0.6340917847499651,
    "yandexOrgId": "230964774135",
    "lastTransactionAt": "2026-07-15T17:11:37.111Z"
  },
  {
    "id": "01KX3GXSVGV2FWT2KC7Z46P0EH",
    "name": "Twonp",
    "addr": "Россия, Московская область, городской округ Химки, посёлок аэропорта Шереметьево",
    "lat": 55.990779,
    "lon": 37.416821,
    "status": "no_data",
    "statusByFuelType": {
      "92": "no_data",
      "95": "no_data"
    },
    "yandexOrgId": "90526143610",
    "lastTransactionAt": "2026-07-12T07:10:04.984Z"
  },
  {
    "id": "01KX3GXS8X6EZ2DRRE0WWPTMNX",
    "name": "Vitaoil",
    "addr": "Россия, Московская область, Лобня, Западная улица, 1В",
    "lat": 56.006212,
    "lon": 37.474123,
    "status": "no_data",
    "statusByFuelType": {
      "92": "no_data",
      "95": "no_data"
    },
    "yandexOrgId": "29076055928",
    "lastTransactionAt": null
  },
  {
    "id": "01KX3GXSATPSWJBCD10YZKMM3W",
    "name": "Роснефть",
    "addr": "Россия, Московская область, городской округ Мытищи, территориальное управление Федоскино",
    "lat": 55.99562,
    "lon": 37.533946,
    "status": "maybe_available",
    "statusByFuelType": {
      "92": "maybe_available",
      "95": "maybe_available"
    },
    "confidence": 0.6276774649223666,
    "yandexOrgId": "113131915576",
    "lastTransactionAt": "2026-07-15T16:54:02.627Z"
  },
  {
    "id": "01KX3GXT1Z6A9YZM40CKF29TST",
    "name": "Роснефть",
    "addr": "Россия, Московская область, городской округ Мытищи, деревня Ерёмино, Дмитровская улица, вл56с1",
    "lat": 56.011957,
    "lon": 37.546668,
    "status": "maybe_available",
    "statusByFuelType": {
      "92": "maybe_available",
      "95": "maybe_available"
    },
    "confidence": 0.6517234899917512,
    "yandexOrgId": "50006304563",
    "lastTransactionAt": "2026-07-15T16:25:02.227Z"
  },
  {
    "id": "01KX3GXWJ215TJTKKKV8D9J7JA",
    "name": "Нефтьмагистраль",
    "addr": "Россия, Московская область, городской округ Мытищи, деревня Пирогово, Центральная улица, 100А",
    "lat": 55.988193,
    "lon": 37.727839,
    "status": "maybe_available",
    "statusByFuelType": {
      "92": "maybe_available",
      "95": "maybe_available"
    },
    "confidence": 0.5788446039879789,
    "yandexOrgId": "1273091251",
    "lastTransactionAt": "2026-07-15T17:26:41.792Z"
  },
  {
    "id": "01KX3GXS5W2XGJBTZXEBS0TZD7",
    "name": "Опти",
    "addr": "Россия, Московская область, Пушкино, Учинская улица, 10",
    "lat": 55.999539,
    "lon": 37.834312,
    "status": "not_available",
    "statusByFuelType": {
      "92": "not_available",
      "95": "not_available"
    },
    "yandexOrgId": "55815872654",
    "lastTransactionAt": "2026-07-11T10:18:29.352Z"
  },
  {
    "id": "01KX3GXVWP69MA20THFX7C9MPR",
    "name": "Татнефть",
    "addr": "Россия, Московская область, Пушкино, Ярославское шоссе, 33-й километр, вл2с1",
    "lat": 55.994154,
    "lon": 37.876121,
    "status": "available",
    "statusByFuelType": {
      "92": "available",
      "95": "maybe_available"
    },
    "confidence": 0.6353338827601407,
    "yandexOrgId": "1200982881",
    "lastTransactionAt": "2026-07-15T17:13:25.384Z"
  },
  {
    "id": "01KX3GXT09MY36MVVEZD5Y6XST",
    "name": "Татнефть",
    "addr": "Россия, Московская область, городской округ Солнечногорск, территориальное управление Пешковское",
    "lat": 56.038114,
    "lon": 37.160941,
    "status": "maybe_available",
    "statusByFuelType": {
      "92": "maybe_available",
      "95": "maybe_available"
    },
    "confidence": 0.3580126110616637,
    "yandexOrgId": "1401715378",
    "lastTransactionAt": "2026-07-15T14:57:20.751Z"
  },
  {
    "id": "01KX3GXWGTEWTCWHZYPAC92MZ8",
    "name": "Gsoil",
    "addr": "Россия, Московская область, городской округ Солнечногорск, посёлок городского типа Менделеево",
    "lat": 56.029369,
    "lon": 37.220249,
    "status": "not_available",
    "statusByFuelType": {
      "92": "not_available",
      "95": "not_available"
    },
    "yandexOrgId": "243494408689",
    "lastTransactionAt": "2026-07-15T14:43:28.986Z"
  },
  {
    "id": "01KX3GXTGX6N0Y55T110E12E09",
    "name": "Лукойл",
    "addr": "Россия, Московская область, Дмитровский городской округ, посёлок совхоза Останкино, 113",
    "lat": 56.04672,
    "lon": 37.417905,
    "status": "maybe_available",
    "statusByFuelType": {
      "92": "maybe_available",
      "95": "maybe_available"
    },
    "confidence": 0.5711468901998409,
    "yandexOrgId": "1697854487",
    "lastTransactionAt": "2026-07-15T15:09:01.027Z"
  },
  {
    "id": "01KX3GXVCFBZD5MQ306CTSP8RP",
    "name": "Teboil",
    "addr": "Россия, Московская область, городской округ Мытищи, деревня Шолохово, Дмитровское шоссе, вл2А",
    "lat": 56.055004,
    "lon": 37.532832,
    "status": "no_data",
    "statusByFuelType": {
      "92": "no_data",
      "95": "no_data"
    },
    "yandexOrgId": "230195844309",
    "lastTransactionAt": "2026-07-09T15:38:28.319Z"
  },
  {
    "id": "01KX3GXVN2K0RRZ6T4CA9X7XTP",
    "name": "Роснефть",
    "addr": "Россия, Московская область, городской округ Мытищи, Дмитровское шоссе, 35-й километр, 2",
    "lat": 56.042318,
    "lon": 37.541839,
    "status": "maybe_available",
    "statusByFuelType": {
      "92": "maybe_available",
      "95": "maybe_available"
    },
    "confidence": 0.6620412403143197,
    "yandexOrgId": "63285103637",
    "lastTransactionAt": "2026-07-15T17:20:12.321Z"
  },
  {
    "id": "01KX3GXRTRKWYBN7V3NCHQZ9MZ",
    "name": "Роснефть",
    "addr": "Россия, Московская область, городской округ Пушкинский, городское поселение Правдинский",
    "lat": 56.055506,
    "lon": 37.900467,
    "status": "no_data",
    "statusByFuelType": {
      "92": "no_data",
      "95": "no_data"
    },
    "yandexOrgId": "1522557925",
    "lastTransactionAt": "2026-07-12T06:25:02.216Z"
  },
  {
    "id": "01KX3GXTQ840Z1KE5JRSQRCK0J",
    "name": "Трасса",
    "addr": "Россия, Московская область, городской округ Пушкинский, село Левково, 100",
    "lat": 56.024369,
    "lon": 37.94952,
    "status": "no_data",
    "statusByFuelType": {
      "92": "no_data",
      "95": "no_data"
    },
    "yandexOrgId": "1404408086",
    "lastTransactionAt": null
  },
  {
    "id": "01KX3GXTZ3N2H7MSAREHZP84QA",
    "name": "Teboil",
    "addr": "Россия, Москва, Троицк, Калужское шоссе, вл1",
    "lat": 55.476886,
    "lon": 37.318242,
    "status": "maybe_available",
    "statusByFuelType": {
      "92": "maybe_available",
      "95": "maybe_available"
    },
    "confidence": 0.5949433669716295,
    "yandexOrgId": "39946107010",
    "lastTransactionAt": "2026-07-15T17:08:52.335Z"
  },
  {
    "id": "01KX3GXTYR8MT0PKB400N0AJSQ",
    "name": "Газпромнефть",
    "addr": "Россия, Москва, Троицк, Калужское шоссе, 40-й километр, 1",
    "lat": 55.474179,
    "lon": 37.311737,
    "status": "available",
    "statusByFuelType": {
      "92": "available",
      "95": "maybe_available"
    },
    "confidence": 0.6673581050001983,
    "yandexOrgId": "22434436960",
    "lastTransactionAt": "2026-07-15T17:28:51.789Z"
  },
  {
    "id": "01KX3GXVAAR1HCNVY8F9PJBCW9",
    "name": "Push.Ka",
    "addr": "Москва, Троицк, микрорайон В, 63",
    "lat": 55.492888,
    "lon": 37.296351,
    "status": "no_data",
    "statusByFuelType": {
      "92": "no_data",
      "95": "no_data"
    },
    "yandexOrgId": "237254408205",
    "lastTransactionAt": null
  },
  {
    "id": "01KX3GXVQQKBFS1YAQYZFF5J96",
    "name": "Трасса",
    "addr": "Россия, Москва, Троицкий административный округ, Краснопахорский район, Калужское шоссе, 42-й километр, вл5",
    "lat": 55.449005,
    "lon": 37.291543,
    "status": "no_data",
    "statusByFuelType": {
      "92": "no_data",
      "95": "no_data"
    },
    "yandexOrgId": "1244591132",
    "lastTransactionAt": null
  },
  {
    "id": "01KX3GXTEDT2CVTJNBNCT003ZR",
    "name": "Татнефть",
    "addr": "Россия, Москва, Троицк, Калужское шоссе, 16А",
    "lat": 55.469685,
    "lon": 37.305109,
    "status": "available",
    "statusByFuelType": {
      "92": "available",
      "95": "available"
    },
    "confidence": 0.7590084008220553,
    "yandexOrgId": "140703202578",
    "lastTransactionAt": "2026-07-15T17:02:08.077Z"
  },
  {
    "id": "01KX3GXWCMMAJHSKFHSWPQ0X6M",
    "name": "Нефтьмагистраль",
    "addr": "Россия, Москва, Троицк, Калужское шоссе, 21",
    "lat": 55.471288,
    "lon": 37.30907,
    "status": "maybe_available",
    "statusByFuelType": {
      "92": "maybe_available",
      "95": "maybe_available"
    },
    "confidence": 0.619033951638678,
    "yandexOrgId": "106384788117",
    "lastTransactionAt": "2026-07-15T15:49:19.421Z"
  },
  {
    "id": "01KX3GXVTQ7VAHDKWRCG2T3V5G",
    "name": "Роснефть",
    "addr": "Москва, Троицкий административный округ, Краснопахорский район, квартал № 181",
    "lat": 55.440539,
    "lon": 37.290113,
    "status": "available",
    "statusByFuelType": {
      "92": "available",
      "95": "available"
    },
    "confidence": 0.7761193469755733,
    "yandexOrgId": "158546182057",
    "lastTransactionAt": "2026-07-15T17:27:51.899Z"
  },
  {
    "id": "01KX3GXSVSXSQB1SHDZ53PKZNB",
    "name": "АГЗС Csm",
    "addr": "Московская область, городской округ Домодедово, А-105, 38-й километр",
    "lat": 55.464417,
    "lon": 37.853127,
    "status": "no_data",
    "statusByFuelType": {
      "92": "no_data",
      "95": "no_data"
    },
    "yandexOrgId": "132589258046",
    "lastTransactionAt": null
  },
  {
    "id": "01KX3GXSW8QTTH1J6ZMNK2AGJA",
    "name": "АЗС",
    "addr": "Россия, Московская область, городской округ Домодедово, деревня Жеребятьево",
    "lat": 55.46343,
    "lon": 37.852711,
    "status": "no_data",
    "statusByFuelType": {
      "92": "no_data",
      "95": "no_data"
    },
    "yandexOrgId": "11717652228",
    "lastTransactionAt": null
  },
  {
    "id": "01KX3GXSQD3EWM8PCFB86ZVNRX",
    "name": "Teboil",
    "addr": "Россия, Московская область, городской округ Домодедово, А-105, 38-й километр, с4",
    "lat": 55.467065,
    "lon": 37.85188,
    "status": "available",
    "statusByFuelType": {
      "92": "available",
      "95": "maybe_available"
    },
    "confidence": 0.6052081321814347,
    "yandexOrgId": "34273585678",
    "lastTransactionAt": "2026-07-15T16:50:15.789Z"
  },
  {
    "id": "01KX3GXT1XG4MFQA3J79R00SYN",
    "name": "Газойл",
    "addr": "Россия, Москва, Новомосковский административный округ, Щербинка, Симферопольское шоссе, 15",
    "lat": 55.495773,
    "lon": 37.577236,
    "status": "no_data",
    "statusByFuelType": {
      "92": "no_data",
      "95": "no_data"
    },
    "yandexOrgId": "206561936806",
    "lastTransactionAt": null
  },
  {
    "id": "01KX3GXS8P2441S8VZAPBA2186",
    "name": "Teboil",
    "addr": "Россия, Московская область, городской округ Подольск, Симферопольское шоссе, 30-й километр, 7",
    "lat": 55.492122,
    "lon": 37.610397,
    "status": "maybe_available",
    "statusByFuelType": {
      "92": "maybe_available",
      "95": "maybe_available"
    },
    "confidence": 0.6579495088133614,
    "yandexOrgId": "52519771640",
    "lastTransactionAt": "2026-07-15T16:08:26.139Z"
  },
  {
    "id": "01KX3GXTMTFNMJY6RG4BH5H37Y",
    "name": "Лукойл",
    "addr": "Россия, Московская область, городской округ Домодедово, М-4 Дон, 32-й километр, с1",
    "lat": 55.478003,
    "lon": 37.746239,
    "status": "not_available",
    "statusByFuelType": {
      "92": "not_available",
      "95": "not_available"
    },
    "yandexOrgId": "1797856579",
    "lastTransactionAt": "2026-07-13T17:29:43.532Z"
  },
  {
    "id": "01KX3GXTAQ7CVGF90KK912HQPR",
    "name": "Татнефть",
    "addr": "Россия, Московская область, Домодедово, микрорайон Центральный, территория Домодедовский Торговый Двор, 1",
    "lat": 55.454016,
    "lon": 37.780965,
    "status": "available",
    "statusByFuelType": {
      "92": "available",
      "95": "maybe_available"
    },
    "confidence": 0.6679004448067292,
    "yandexOrgId": "14328249542",
    "lastTransactionAt": "2026-07-15T17:21:03.265Z"
  },
  {
    "id": "01KX3GXVWVHC54HAP8ZR50H09M",
    "name": "Татнефть",
    "addr": "Московская область, Подольск, проспект Юных Ленинцев, 1Б",
    "lat": 55.461658,
    "lon": 37.558764,
    "status": "available",
    "statusByFuelType": {
      "92": "available",
      "95": "maybe_available"
    },
    "confidence": 0.6520974222024146,
    "yandexOrgId": "1128429967",
    "lastTransactionAt": "2026-07-15T17:17:57.023Z"
  },
  {
    "id": "01KX3GXWECJNBK5MJD3A1KAP80",
    "name": "Teboil",
    "addr": "Россия, Московская область, городской округ Домодедово, М-4 Дон, 32-й километр, с2",
    "lat": 55.474318,
    "lon": 37.748826,
    "status": "not_available",
    "statusByFuelType": {
      "92": "not_available",
      "95": "not_available"
    },
    "yandexOrgId": "112325131540",
    "lastTransactionAt": "2026-07-14T23:57:56.195Z"
  },
  {
    "id": "01KX3GXVJFP5918YW3J98Y9GF2",
    "name": "Газпромнефть",
    "addr": "Московская область, городской округ Домодедово, А-105, 37-й километр, 5",
    "lat": 55.477795,
    "lon": 37.853114,
    "status": "available",
    "statusByFuelType": {
      "92": "available",
      "95": "available"
    },
    "confidence": 0.8137863462268607,
    "yandexOrgId": "199781161006",
    "lastTransactionAt": "2026-07-15T17:04:39.791Z"
  },
  {
    "id": "01KX3GXVKTT65AE0JYT6HQPZST",
    "name": "МТК",
    "addr": "Россия, Московская область, Домодедово, микрорайон Северный, Логистическая улица, 16",
    "lat": 55.471759,
    "lon": 37.714137,
    "status": "no_data",
    "statusByFuelType": {
      "92": "no_data",
      "95": "no_data"
    },
    "yandexOrgId": "158459647651",
    "lastTransactionAt": null
  },